OrderLineID,OrderCodeID,PartnerID,CustomerCountry,CustomerCity,CustomerLatitude,CustomerLongitude,PartnerLatitude,PartnerLongitude,PartnerCountry,PartnerCity,DeliveryType,IsHazmat,TariffCode,DdpCategory,DdpSubcategory,Category1stLevel,Category2ndLevel,OrderDate,DeliveryTime
3585,BBR10944434,9949,Singapore,singapore,1.2800945,103.8509491,51.3313,0.445068,United Kingdom,Snodland,Express,No,6109.10.00,Clothing & Accessories, T-shirts  singlets and other vests,Clothing,T-Shirts & Vests,2017-05-11 08:39:40,4.04
1339,BIR4931334,9673,China,Beijing,39.90403,116.407526,45.9626398,12.6551362,Italy,Pordenone,Express,No,4202.12.80 ,Bags & similar,Trunks  suitcases  vanity cases  executive-cases  briefcases  school satchels and similar,Bags,Backpacks,2016-02-04 13:19:13,9.88
4448,GRM6588384,9383,United Kingdom,Altrincham,53.39018,-2.350904,41.8723889,12.4801802,Italy,Rome,Standard,No,6203.43.20 ,Clothing & Accessories,Trousers  overalls  shorts,Clothing,All in One,2016-07-12 12:08:41,6.88
1817,MBT12633964,9579,Bulgaria,Varna,43.2046654,27.9105425,45.6765522,9.2367432,Italy,CARATE BRIANZA,Express,No,0000.00.00,default value,,Bags,Tote Bags,2017-07-26 13:30:31,5.83
18475,PRT9869856,9671,Denmark,Aalborg,57.04881949999999,9.921747000000002,44.0570817,12.5646003,Italy,Rimini,Standard,No,6109.10.00,Clothing & Accessories, T-shirts  singlets and other vests,Clothing,T-Shirts & Vests,2017-03-09 09:53:18,6.25
10390,MJR10985969,10602,Korea  Republic of,Dogok2-dong Kangnam-gu,,,,,Italy,BELLIZZI (SA),Express,No,6109100000,Kids' Clothing & Accessories,T-shirts  singlets and other vests,Girls Clothing,Tops,2017-05-14 03:34:46,3.46
1528,ERA6564248,9446,United States,Sunnyvale,37.36883,-122.0363496,45.6890925,12.6390279,Italy,CEGGIA VE,Express,No,4202.31.60  ,Bags & similar,Articles of a kind normally carried in the pocket or in the handbag,Lifestyle,Phone  Computer & Gadgets,2016-07-12 01:14:25,3.46
15193,AOS6457110,9724,China,Beijing,39.90403,116.407526,29.3333333,48.0833333,Kuwait,Salmiya,Express,No,6206.30.30 ,Clothing & Accessories,Blouses  shirts and shirt-blouses,Clothing,Tops,2016-07-06 15:19:20,7.0
1546,LEG17817119,9747,Switzerland,Sankt Gallen,47.4179284,9.3643968,24.7116667,46.7241667,Saudi Arabia,Riyadh,Express,No,6203.32.20  ,Clothing & Accessories,Jackets and blazers,Clothing,Jackets,2018-02-27 01:56:11,21.54
5260,VOG11646522,9689,United States,Los Angeles,34.0522342,-118.2436849,43.4632839,11.8796336,Italy,Arezzo,Express,No,6404.11.20,Footwear with outer soles of rubber  plastics  leather or composition leather and uppers of textile materials,Footwear with outer soles of rubber or plastics,Shoes,Low-Tops,2017-06-15 21:26:23,3.5
14135,HBZ10121092,9144,Japan,TODA,35.8176157,139.6778917,53.479324,-2.2484851,United Kingdom,Manchester,Express,No,6109.10.00,Clothing & Accessories, T-shirts  singlets and other vests,Clothing,T-Shirts & Vests,2017-03-24 18:44:18,5.58
19159,DOG7020561,9258,Spain,barcelona,41.3850639,2.1734035,38.1156879,13.3612671,Italy,Palermo,Standard,No,,,,Clothing,Knitwear,2016-08-21 23:34:12,3.5
279,GIS16453444,9621,Russian Federation,Rostov-on-Don,47.2166667,39.7,43.6158299,13.518915,Italy,Ancona,Express,No,6404.11.20,Footwear with outer soles of rubber  plastics  leather or composition leather and uppers of textile materials,Footwear with outer soles of rubber or plastics,Shoes,Low-Tops,2018-01-09 19:01:35,5.62
9145,BCM5928957,9158,India,ludhiana,30.900965,75.85727579999998,45.4654219,9.185924300000002,Italy,Milano,Express,No,6106.10.00,Clothing & Accessories,Blouses  shirts and shirt-blouses,Clothing,Tops,2016-05-23 12:57:49,5.04
4124,DPR13342186,9334,China,Shenzhen,22.543099,114.057868,40.4643606,17.2470303,Italy,Taranto,Express,No,6109.10.00,Clothing & Accessories, T-shirts  singlets and other vests,Clothing,T-Shirts & Vests,2017-09-12 18:22:05,5.83
10418,OFC10834361,9869,Germany,Düsseldorf,,,43.3048492,13.7218351,Italy,CIVITANOVA MARCHE,Standard,No,6403.59.30 ,Footwear with outer soles of rubber  plastics  leather or composition leather and uppers of leather,Other footwear with outer soles of leather,Shoes,Sandals,2017-05-04 07:43:48,4.04
264,GRM6103531,9383,Croatia,Zagreb,45.8150108,15.981919,41.8723889,12.4801802,Italy,Rome,Express,No,4202.22.80 ,Bags & similar,Handbags  whether or not with shoulder strap  including those without handle,Bags,Tote Bags,2016-06-04 15:43:23,2.83
11951,DLC12572598,9887,Canada,Richmond,49.1665898,-123.133569,40.7056308,-73.9780035,United States,New York,Express,No,6203.31.90 ,Clothing & Accessories,Jackets and blazers,Clothing,Knitwear,2017-07-22 15:10:06,2.92
7703,TZF9435254,9728,Hong Kong,Hong Kong,22.396428,114.10949699999999,,,Italy,ALBANO SANT ALESSANDRO,Express,No,6109100000,Kids' Clothing & Accessories,T-shirts  singlets and other vests,Boys Clothing,Tops,2017-02-09 08:58:45,2.04
3057,GRM5065781,9383,Qatar,Doha,25.2866667,51.5333333,41.8723889,12.4801802,Italy,Rome,Express,No,6109.10.00,Clothing & Accessories, T-shirts  singlets and other vests,Clothing,Tops,2016-02-14 09:59:01,3.08
7771,ULF9609840,9750,Russian Federation,Nizhny Novgorod,56.327358,43.985191,52.5200066,13.404954,Germany,Berlin,Express,No,6404.11.90,Footwear with outer soles of rubber  plastics  leather or composition leather and uppers of textile materials,Footwear with outer soles of rubber or plastics,Shoes,Low-Tops,2017-02-21 18:36:21,5.58
15319,LUB8105101,9560,Russian Federation,Moscow,55.755826,37.6173,44.0570817,12.5646003,Italy,Rimini,Express,No,6403.59.90 ,Footwear with outer soles of rubber  plastics  leather or composition leather and uppers of leather,Other footwear with outer soles of leather,Shoes,Ballerina Shoes,2016-11-25 08:55:13,5.33
11052,ATO10006259,9843,United States,brooklyn,40.6927778,-73.9902778,45.4654219,9.185924300000002,Italy,Milano,Express,No,0000.00.00,default value,,Shoes,Trainers,2017-03-17 17:46:53,4.0
11840,SAN11567056,9006,Malaysia,Nusajaya,,,43.7710332,11.2480006,Italy,Firenze,Express,No,6203.42.40  ,Clothing & Accessories,Trousers  overalls  shorts,Clothing,Trousers,2017-06-12 16:50:58,3.79
8697,VIN8298408,9796,United States,Las Vegas,36.255123,-115.23834850000001,45.611892,8.8531265,Italy,Busto Arsizio,Express,No,4203.30.00,Bags & similar,Belts,Accessories,Belts,2016-12-03 05:07:09,6.25
17341,VTK7791791,9462,Kuwait,Kuwait City,29.3697222,47.9783333,52.2296756,21.0122287,Poland,warsaw,Express,No,6110.20.20 ,Clothing & Accessories,Jerseys  pullovers  cardigans  waistcoats and similar articles  knitted or crocheted,Clothing,Sweaters & Knitwear,2016-11-10 07:46:28,2.25
10372,RCA13715383,9274,Hong Kong,Hongkong,22.396428,114.10949699999999,40.55320089999999,14.222154000000002,Italy,CAPRI,Express,No,6202.13.10 ,Clothing & Accessories,Coats: overcoats  raincoat  cape  cloak  ski jackets  windcheaters  wind-jackets and similar articles,Clothing,Jackets,2017-10-07 10:41:36,4.0
1813,DOP6929237,9954,Germany,Kempten,47.733333,10.316667,,,Italy,Funo Di Argelato,Standard,No,6110.20.20 ,Clothing & Accessories,Jerseys  pullovers  cardigans  waistcoats and similar articles  knitted or crocheted,Clothing,Sweaters & Knitwear,2016-08-10 21:22:44,5.62
14370,DVC15552116,9921,Russian Federation,Saint Petersburg,59.9342802,30.3350986,,,Italy,SANT ANASTASIA,Express,No,6110.11.00,Clothing & Accessories,Jerseys  pullovers  cardigans  waistcoats and similar articles  knitted or crocheted,Clothing,Knitwear,2017-12-08 08:24:16,6.08
15099,BCM5667918,9158,Canada,Toronto,43.653226,-79.38318429999998,45.4654219,9.185924300000002,Italy,Milano,Express,No,6404.11.20,Footwear with outer soles of rubber  plastics  leather or composition leather and uppers of textile materials,Footwear with outer soles of rubber or plastics,Shoes,Trainers,2016-04-28 05:42:17,4.33
1134,LNC14102731,9983,Hong Kong,New territories,22.406083399999996,114.1201536,45.5686401,8.642255999999998,Italy,bellinzago novarese,Express,No,6403.59.90 ,Footwear with outer soles of rubber  plastics  leather or composition leather and uppers of leather,Other footwear with outer soles of leather,Shoes,Pumps,2017-10-27 16:42:04,4.71
6268,ATA6898643,9863,United Kingdom,Grantham,52.912524,-0.643582,48.76564,8.2285242,Germany,Baden-Baden,Standard,No,6403.59.30 ,Footwear with outer soles of rubber  plastics  leather or composition leather and uppers of leather,Other footwear with outer soles of leather,Shoes,Sandals,2016-08-06 20:52:59,3.62
4651,BRH12614685,10361,Croatia,Rab,,,51.652766,-0.028045,United Kingdom,Brimsdown,Express,No,6104.53.20  ,Clothing & Accessories,Skirts,Clothing,Skirts,2017-07-25 13:42:18,3.0
17281,GAL6264466,9008,United States,Sedona,34.8697395,-111.7609896,43.9579617,10.1672792,Italy,Forte Dei Marmi,Express,No,6204.49.10 ,Clothing & Accessories,Dresses,Clothing,Dresses,2016-06-19 06:05:18,4.33
19016,UPP11266929,9909,United States,Miami beach,25.790654,-80.13004549999998,48.583148,7.747881999999999,France,Strasbourg,Express,No,6206.90.00,Clothing & Accessories,Blouses  shirts and shirt-blouses,Clothing,Tops,2017-05-28 06:23:28,4.33
5594,DLB17608537,9026,Mexico,Guadalupe,25.6833333,-100.2666667,40.8517746,14.268124400000001,Italy,Naples,Express,No,6404.11.20,Footwear with outer soles of rubber  plastics  leather or composition leather and uppers of textile materials,Footwear with outer soles of rubber or plastics,Shoes,Trainers,2018-02-20 00:14:11,2.75
7185,VTK15713585,9462,Australia,Stanmore,-33.89352,151.164239,52.2296756,21.0122287,Poland,warsaw,Express,No,6109.10.00,Clothing & Accessories, T-shirts  singlets and other vests,Clothing,T-Shirts & Vests,2017-12-15 00:56:09,3.54
3132,AQU9772965,10168,Nigeria,Ikoyi,,,42.0613816,-1.6063169,Spain,Tudela,Express,No,6204.43.40  ,Clothing & Accessories,Dresses,Clothing,Dresses,2017-03-04 00:20:38,4.42
15920,GRM6872199,9383,Azerbaijan,Baku,40.4349504,49.8676232,41.8723889,12.4801802,Italy,Rome,Express,No,6110.20.20 ,Clothing & Accessories,Jerseys  pullovers  cardigans  waistcoats and similar articles  knitted or crocheted,Clothing,Tops,2016-08-03 13:36:42,4.88
17799,BRO8472438,9359,Denmark,Frederikshavn,57.442711,10.521006,51.508515,-0.1254872,United Kingdom,London,Standard,No,6109.10.00,Clothing & Accessories, T-shirts  singlets and other vests,Clothing,Tops,2016-12-14 15:01:05,6.04
8564,CHC15621217,10244,Bulgaria,Sofia,42.6977082,23.3218675,51.556619,0.076251,United Kingdom,Ilford,Express,No,6404199000,Kids' Footwear with outer soles of rubber  plastics  leather or composition leather and uppers of textile materials,Footwear with outer soles of rubber or plastics,Girls Shoes,Boots,2017-12-11 12:05:59,1.0
14154,TVS15028151,9007,Netherlands,Amersfoort,52.1561113,5.3878266,55.6760968,12.5683371,Denmark,COPENHAGEN K,Express,No,6110.20.20 ,Clothing & Accessories,Jerseys  pullovers  cardigans  waistcoats and similar articles  knitted or crocheted,Clothing,Tops,2017-11-24 13:05:53,8.54
5939,BRH18117541,10361,United Kingdom,Bham,,,51.652766,-0.028045,United Kingdom,Brimsdown,Express,No,6403.99.90 ,Footwear with outer soles of rubber  plastics  leather or composition leather and uppers of leather,Other footwear,Shoes,Trainers,2018-03-08 21:44:49,3.5
844,DDN5291239,9155,Italy,Cornedo Vicentino ,45.6150616,11.337638900000002,41.1171432,16.8718715,Italy,Bari,Express,No,6206.40.30 ,Clothing & Accessories,Blouses  shirts and shirt-blouses,Clothing,Tops,2016-03-18 12:02:53,3.96
96,GNB13824322,9838,Kosovo,prishtina,,,45.4827412,10.1789011,Italy,FLERO,Express,No,6110.20.20 ,Clothing & Accessories,Jerseys  pullovers  cardigans  waistcoats and similar articles  knitted or crocheted,Clothing,Tops,2017-10-13 15:39:03,4.92
13358,DAN12642846,9597,Taiwan,Taipei,25.091075,121.5598345,40.9844523,14.218948,Italy,Carinaro,Express,No,6201.13.10 ,Clothing & Accessories,Coats: overcoats  raincoat  cape  cloaks and similar articles,Clothing,Coats,2017-07-26 23:52:15,4.46
6130,BRC16615465,10952,Spain,madrid,40.4167754,-3.7037902,51.652766,-0.028045,United Kingdom,Brimsdown,Express,No,6403.99.90 ,Footwear with outer soles of rubber  plastics  leather or composition leather and uppers of leather,Other footwear,Shoes,Trainers,2018-01-11 15:01:15,3.88
19648,EQI8860534,10016,Italy,Mirano,45.4950138,12.1158683,40.98550170000001,14.1755215,Italy,San Marcellino,Standard,No,6201.13.40  ,Clothing & Accessories,Coats: overcoats  raincoat  cape  cloaks and similar articles,Clothing,Coats,2017-01-09 20:16:15,1.75
3694,HAC12709252,10697,United States,Holmes Beach,,,40.7335179,-73.78014469999998,United States,fresh meadows,Express,No,4202.39.90 ,Bags & similar,Articles of a kind normally carried in the pocket or in the handbag,Lifestyle,Phone  Computer & Gadgets,2017-07-30 21:29:47,4.67
13814,SPW8603616,9206,United States,Long Island City,40.744679,-73.94854239999998,44.0494254,8.2156113,Italy,ALBENGA,Express,No,6110.11.00,Clothing & Accessories,Jerseys  pullovers  cardigans  waistcoats and similar articles  knitted or crocheted,Clothing,Knitwear,2016-12-24 09:29:49,4.08
13573,ERA6410669,9446,Germany,Kirchheimbolanden,49.6629007,8.0116405,45.6890925,12.6390279,Italy,CEGGIA VE,Standard,No,6203.42.40  ,Clothing & Accessories,Trousers  overalls  shorts,Clothing,Denim,2016-07-01 21:38:45,4.54
5683,BRN14534194,9111,United Kingdom,Canary Wharf,51.5054306,-0.0235333,45.1564168,10.7913751,Italy,Mantova,Standard,No,4202.21.90  ,Bags & similar,Handbags  whether or not with shoulder strap  including those without handle,Bags,Clutch Bags,2017-11-13 21:36:12,6.54
12911,UGK10632666,10147,Kuwait,Qortuba,29.3122222,47.9855556,40.9270884,14.528885999999998,Italy,Nola,Express,No,6204533000,Kids' Clothing & Accessories,Skirts,Girls Clothing,Skirts,2017-04-22 17:58:42,3.79
15586,CRN15486297,9847,United Kingdom,solihull,52.411811,-1.77761,45.7586155,8.558182399999998,Italy,Arona,Standard,No,6109.10.00,Clothing & Accessories, T-shirts  singlets and other vests,Clothing,Tops,2017-12-05 17:33:26,5.75
7614,KNI5293882,9944,United States,State College,40.7933949,-77.8600012,47.070714,15.439504,Austria,Graz,Express,No,0000.00.00,default value,,Clothing,T-Shirts & Vests,2016-03-18 17:17:11,4.88
14343,VIN9006193,9796,Macau,MACAU,22.1960033,113.5460653,45.611892,8.8531265,Italy,Busto Arsizio,Express,No,6109.10.00,Clothing & Accessories, T-shirts  singlets and other vests,Clothing,T-Shirts & Vests,2017-01-12 09:51:12,5.17
619,ALD11205063,9178,Azerbaijan,Baku,40.4349504,49.8676232,45.4934881,12.2463181,Italy,MESTRE,Express,No,6109.10.00,Clothing & Accessories, T-shirts  singlets and other vests,Clothing,T-Shirts & Vests,2017-05-25 08:15:07,6.12
1806,ERA5631664,9446,Italy,Sanremo,43.8159671,7.7760567,45.6890925,12.6390279,Italy,CEGGIA VE,Standard,No,,,,Clothing,Jackets,2016-04-23 15:00:55,4.17
16191,BRO6189056,9359,United Kingdom,Glasgow,55.864237,-4.251806,51.508515,-0.1254872,United Kingdom,London,Express,No,6204.42.30 ,Clothing & Accessories,Dresses,Clothing,Dresses,2016-06-12 15:01:39,3.88
10816,GNB17180050,9838,Germany,Mülheim,,,45.4827412,10.1789011,Italy,FLERO,Standard,No,4202.29.90 ,Bags & similar,Handbags  whether or not with shoulder strap  including those without handle,Bags,Tote Bags,2018-02-01 10:09:34,5.08
20,FRF10768410,10222,China,Shanghai,31.230416,121.473701,41.2115047,-8.6249613,Portugal,Leca Do Balio,Express,No,6211.11.10  ,Clothing & Accessories,Swimwear,Clothing,Beachwear,2017-04-30 14:52:10,3.79
19047,BRH12976804,10361,Kuwait,Kuwait,29.3697222,47.9783333,51.652766,-0.028045,United Kingdom,Brimsdown,Express,No,6404.11.20,Footwear with outer soles of rubber  plastics  leather or composition leather and uppers of textile materials,Footwear with outer soles of rubber or plastics,Shoes,Trainers,2017-08-19 11:24:00,4.29
122,GOR5514437,9514,Macau,Macau,22.1960033,113.5460653,38.3459963,-0.49068549999999994,Spain,Alicante,Express,No,6404.11.90,Footwear with outer soles of rubber  plastics  leather or composition leather and uppers of textile materials,Footwear with outer soles of rubber or plastics,Shoes,Trainers,2016-04-11 05:13:48,3.46
13975,STF7923324,9336,Hong Kong,Hong Kong,22.396428,114.10949699999999,38.0176177,12.537202,Italy,TRAPANI,Express,No,6110.20.20 ,Clothing & Accessories,Jerseys  pullovers  cardigans  waistcoats and similar articles  knitted or crocheted,Clothing,Tops,2016-11-17 03:29:08,4.29
11612,ETI11272696,9774,Poland,Torun,53.0137902,18.5984437,45.1316088,8.450502999999998,Italy,Casale Monferrato,Standard,No,6109.90.10 ,Clothing & Accessories, T-shirts  singlets and other vests,Clothing,Tops,2017-05-28 14:37:18,4.92
9509,VOG17018081,9689,United Kingdom,London,51.508515,-0.1254872,43.4632839,11.8796336,Italy,Arezzo,Standard,No,6203.42.40  ,Clothing & Accessories,Trousers  overalls  shorts,Clothing,Denim,2018-01-24 19:27:22,5.58
18402,TOX15832217,10797,Czech Republic,Buchlovice,,,54.6871555,25.2796514,Lithuania,Vilnius,Express,No,4202.31.60  ,Bags & similar,Articles of a kind normally carried in the pocket or in the handbag,Accessories,Wallets & Cardholders,2017-12-19 20:10:17,2.67
19220,AOS7688154,9724,Cyprus,Paphos,34.7720133,32.4297369,29.3333333,48.0833333,Kuwait,Salmiya,Express,No,4202.21.90  ,Bags & similar,Handbags  whether or not with shoulder strap  including those without handle,Bags,Shoulder Bags,2016-10-31 04:32:30,4.46
6252,JJW8816455,9523,Germany,Jockgrim,49.0930094,8.2743552,51.508515,-0.1254872,United Kingdom,London,Standard,No,6110.12.10 ,Clothing & Accessories,Jerseys  pullovers  cardigans  waistcoats and similar articles  knitted or crocheted,Clothing,Knitwear,2017-01-09 12:03:11,1.88
16553,ETR10025222,9319,Australia,melbourne,-37.814107,144.96328,45.1564168,10.7913751,Italy,Mantova,Express,No,6403.59.90 ,Footwear with outer soles of rubber  plastics  leather or composition leather and uppers of leather,Other footwear with outer soles of leather,Shoes,Pumps,2017-03-19 02:25:35,4.25
18324,SUG15463503,10050,Russian Federation,Saint-Petersburg,59.9342802,30.3350986,43.4632839,11.8796336,Italy,Arezzo,Express,No,6202.13.40,Clothing & Accessories,Coats: overcoats  raincoat  cape  cloak  ski jackets  windcheaters  wind-jackets and similar articles,Clothing,Jackets,2017-12-04 20:24:27,14.92
4507,CSB11198660,10558,United States,Los Angeles,34.0522342,-118.2436849,42.9609785,13.874646900000002,Italy,San Benedetto Del Tronto,Express,No,6203.42.40  ,Clothing & Accessories,Trousers  overalls  shorts,Clothing,Trousers,2017-05-25 01:01:19,5.42
4871,MA116002341,10838,United States,new york,40.7056308,-73.9780035,40.4167754,-3.7037902,Spain,Madrid,Express,No,6206.40.20 ,Clothing & Accessories,Blouses  shirts and shirt-blouses,Clothing,Tops,2017-12-28 14:33:30,1.17
7777,DAN8043872,9597,Hong Kong,Hong Kong,22.396428,114.10949699999999,40.9844523,14.218948,Italy,Carinaro,Express,No,6115.29.80 ,Clothing & Accessories,Pantyhose  tights,Lifestyle,Sporting Goods,2016-11-24 01:50:21,4.38
7720,UFM13985552,10461,United States,Wilton,41.1953739,-73.4378988,47.750839,7.335887999999998,France,Mulhouse,Express,No,6110.11.00,Clothing & Accessories,Jerseys  pullovers  cardigans  waistcoats and similar articles  knitted or crocheted,Clothing,Knitwear,2017-10-21 20:31:56,2.67
15245,BGW6858808,9388,Denmark,Ebeltoft,56.196327,10.677857,48.7754181,9.1817588,Germany,Stuttgart,Express,No,6202.12.20,Clothing & Accessories,Coats: overcoats  raincoat  cape  cloak  ski jackets  windcheaters  wind-jackets and similar articles,Clothing,Coats,2016-08-02 10:27:22,1.08
13065,AAM15432470,9846,Germany,Köln,,,48.66602,2.55769,France,combs la ville,Standard,No,6109.10.00,Clothing & Accessories, T-shirts  singlets and other vests,Clothing,T-Shirts & Vests,2017-12-03 18:13:14,3.62
4258,BGH5353920,9687,Australia,Sydney,-33.8674869,151.2069902,41.8723889,12.4801802,Italy,ROMA,Express,No,4202.21.90  ,Bags & similar,Handbags  whether or not with shoulder strap  including those without handle,Bags,Shoulder Bags,2016-03-24 13:21:25,4.88
1297,NID10525471,9452,Azerbaijan,Bakü,,,41.0723484,14.3311337,Italy,Caserta,Express,No,6205.20.20  ,Clothing & Accessories,Shirts,Clothing,Shirts,2017-04-17 11:41:10,4.12
15608,HNN13375127,10139,Canada,Montreal,45.5086699,-73.5539925,39.4699075,-0.3762881,Spain,Valencia,Express,No,6404.11.20,Footwear with outer soles of rubber  plastics  leather or composition leather and uppers of textile materials,Footwear with outer soles of rubber or plastics,Shoes,Low-Tops,2017-09-14 20:09:43,3.67
15592,TOT5775011,9423,United States,Cresskill,40.9414874,-73.95930409999998,29.7601927,-95.3693896,United States,Houston,Standard,No,6203.43.20 ,Clothing & Accessories,Trousers  overalls  shorts,Clothing,Trousers,2016-05-11 15:40:37,4.92
11639,GMJ11401942,10388,Hong Kong,North Point,22.2884683,114.192803,37.9922399,-1.1306544,Spain,Murcia,Express,No,6205.20.20  ,Clothing & Accessories,Shirts,Clothing,Shirts,2017-06-04 14:09:18,4.21
2933,ERA5904547,9446,Canada,Vancouver,49.261226,-123.11392679999999,45.6890925,12.6390279,Italy,CEGGIA VE,Express,No,6109.10.00,Clothing & Accessories, T-shirts  singlets and other vests,Clothing,Tops,2016-05-21 09:52:55,4.17
4383,MIR11914955,10039,Hong Kong,Hong Kong,22.396428,114.10949699999999,50.62925,3.057256,France,Lille,Express,No,6206.30.30 ,Clothing & Accessories,Blouses  shirts and shirt-blouses,Clothing,Tops,2017-06-30 02:57:53,3.29
13852,BRH14292886,10361,United States,Atlanta,33.7489954,-84.3879824,51.652766,-0.028045,United Kingdom,Brimsdown,Express,No,6110.90.90 ,Clothing & Accessories,Jerseys  pullovers  cardigans  waistcoats and similar articles  knitted or crocheted,Clothing,Tops,2017-11-07 01:56:32,1.71
13270,STF12732554,9336,Greece,Platamonas,,,38.0176177,12.537202,Italy,TRAPANI,Express,No,4202.21.90  ,Bags & similar,Handbags  whether or not with shoulder strap  including those without handle,Bags,Shoulder Bags,2017-08-01 10:19:47,3.38
7031,STF12160131,9336,Hong Kong,Hong Kong,22.396428,114.10949699999999,38.0176177,12.537202,Italy,TRAPANI,Express,No,6205.20.20  ,Clothing & Accessories,Shirts,Clothing,Shirts,2017-07-10 17:37:24,6.79
19079,THW12013916,10080,Korea  Republic of,Seo-gu  Gwangju,,,34.0522342,-118.2436849,United States,Los Angeles,Express,No,6206.10.00,Clothing & Accessories,Blouses  shirts and shirt-blouses,Clothing,Dresses,2017-07-05 16:02:42,5.71
13617,STF11353973,9336,Russian Federation,Staraya Kupavna,55.8,38.166667,38.0176177,12.537202,Italy,TRAPANI,Express,No,6109.10.00,Clothing & Accessories, T-shirts  singlets and other vests,Clothing,T-Shirts & Vests,2017-06-01 18:58:02,6.88
5957,PAS9228771,10188,Russian Federation,Peterburi,,,52.9547832,-1.1581086,United Kingdom,Nottingham,Express,No,,,,Clothing,Underwear & Socks,2017-01-24 04:15:11,2.46
13874,CAJ8629544,10029,Hong Kong,Hong kong,22.396428,114.10949699999999,39.2982629,16.2537357,Italy,cosenza,Express,No,6110202000,Kids' Clothing & Accessories,Jerseys  pullovers  cardigans  waistcoats and similar articles  knitted or crocheted,Girls Clothing,Tops,2016-12-26 17:41:55,3.67
1680,SQU11514364,10572,U.A.E.,Dubai,25.0476643,55.1817407,51.58307,4.7769505,Netherlands,Breda,Express,No,6103.42.10 ,Clothing & Accessories,Trousers  overalls  shorts,Clothing,Trousers,2017-06-09 21:56:46,4.46
19292,JLF11812831,9306,Germany,München,48.1351253,11.5819806,44.323287,12.291485,Italy,savio,Standard,No,6110.20.20 ,Clothing & Accessories,Jerseys  pullovers  cardigans  waistcoats and similar articles  knitted or crocheted,Clothing,Sweaters & Knitwear,2017-06-24 13:58:31,5.08
1740,C2117732589,9918,Japan,SHIBUYA KU - MOTOYOYOGICHO,,,1.2800945,103.8509491,Singapore,Singapore,Express,No,6203.42.40  ,Clothing & Accessories,Trousers  overalls  shorts,Clothing,Trousers,2018-02-24 03:11:21,4.54
1456,TSS10965610,9053,Korea  Republic of,Daejeon Seogu,,,45.8080597,9.0851765,Italy,Como,Express,No,6109.10.00,Clothing & Accessories, T-shirts  singlets and other vests,Clothing,T-Shirts & Vests,2017-05-12 14:49:28,6.04
19661,LEM12692629,9657,United Kingdom,London,51.508515,-0.1254872,41.8723889,12.4801802,Italy,ROMA,Standard,No,6109.10.00,Clothing & Accessories, T-shirts  singlets and other vests,Clothing,T-Shirts & Vests,2017-07-29 18:25:12,4.62
17200,LCS17580063,9491,Spain,Palma Mallorca,39.5751584,2.6536742,50.0646501,19.9449799,Poland,Krakow,Standard,No,6116.91.00,Clothing & Accessories,Gloves  mittens and mitts,Accessories,Gloves,2018-02-18 19:20:31,4.62
8376,VTK6712351,9462,United States,Alexandria,38.8048355,-77.0469214,52.2296756,21.0122287,Poland,warsaw,Express,No,6109.10.00,Clothing & Accessories, T-shirts  singlets and other vests,Clothing,Tops,2016-07-16 09:57:54,4.0
16932,RWD6444381,9756,United States,Honolulu,21.3069444,-157.8583333,51.0543422,3.7174243,Belgium,Gent,Express,No,0000.00.00,default value,,Clothing,Trousers,2016-07-05 10:17:59,3.25
18941,ULD4822673,9393,Cambodia,Phnom Penh,11.544872900000001,104.89216680000001,48.583148,7.747881999999999,France,Strasbourg,Express,No,6109.10.00,Clothing & Accessories, T-shirts  singlets and other vests,Clothing,T-Shirts & Vests,2016-01-25 12:48:38,2.08
9761,VTK12725212,9462,France,PARIS,48.856614,2.3522218999999995,52.2296756,21.0122287,Poland,warsaw,Express,No,,,,Bags,Tote Bags,2017-07-31 21:28:56,1.83
3793,DLC4580526,9887,United Kingdom,London,51.508515,-0.1254872,40.7056308,-73.9780035,United States,New York,Express,No,6404.20.60,Footwear with outer soles of rubber  plastics  leather or composition leather and uppers of textile materials,Footwear with outer soles of leather or composition leather,Shoes,Boots,2016-01-02 11:15:51,4.25
11929,UGK17731110,10147,Hong Kong,Hong Kong,22.396428,114.10949699999999,40.9270884,14.528885999999998,Italy,Nola,Express,No,6206.10.00,Clothing & Accessories,Blouses  shirts and shirt-blouses,Clothing,Tops,2018-02-24 01:52:33,4.58
9198,SAC8160957,9231,Croatia,ZAGREB,45.8150108,15.981919,49.611621,6.1319346,Luxembourg,LUXEMBOURG city,Express,No,6404.11.20,Footwear with outer soles of rubber  plastics  leather or composition leather and uppers of textile materials,Footwear with outer soles of rubber or plastics,Shoes,Trainers,2016-11-26 09:12:08,4.38
16000,ERA13955658,9446,United States,Los Angeles,34.0522342,-118.2436849,45.6890925,12.6390279,Italy,CEGGIA VE,Express,No,,,,Bags,Shoulder Bags,2017-10-20 02:05:29,3.42
6222,ILD18120310,10167,Sweden,gothenburg,57.70887,11.97456,45.44693,8.6221612,Italy,Novara,Standard,No,6203.31.90 ,Clothing & Accessories,Jackets and blazers,Clothing,Jackets,2018-03-09 00:18:33,5.67
5435,BRN6800632,9111,United States,Emeryville,37.831316,-122.2852473,45.1564168,10.7913751,Italy,Mantova,Express,No,6203.33.20,Clothing & Accessories,Jackets and blazers,Clothing,Jackets,2016-07-26 18:58:27,2.71
130,SPL4977321,9401,Italy,Roma,41.8723889,12.4801802,34.7071301,33.0226174,Cyprus,Limassol,Express,No,6214.10.10 ,Clothing & Accessories,Shawls  scarves  mufflers  mantillas  veils and similar articles,Accessories,Scarves,2016-02-08 00:43:19,2.54
18273,DPR6449160,9334,Russian Federation,Moscow,55.755826,37.6173,40.4643606,17.2470303,Italy,Taranto,Express,No,6105.10.00,Clothing & Accessories,Shirts,Clothing,Polo Shirts,2016-07-05 19:37:51,1.88
6947,SMT10738365,9214,China,Beijing,39.90403,116.407526,49.62044,6.07039,Luxembourg,Strassen,Express,No,4202.19.00,Bags & similar,Trunks  suitcases  vanity cases  executive-cases  briefcases  school satchels and similar,Bags,Backpacks,2017-04-28 17:51:28,11.71
13472,K2116438104,10033,Korea  Republic of,JungGu,,,1.2800945,103.8509491,Singapore,Singapore,Express,No,6204522000,Kids' Clothing & Accessories,Skirts,Girls Clothing,Skirts,2018-01-09 16:00:20,6.04
10412,XSP15164835,10687,Russian Federation,Moscow,55.755826,37.6173,-23.5505199,-46.6333094,Brazil,Sao Paulo,Express,No,4202.29.90 ,Bags & similar,Handbags  whether or not with shoulder strap  including those without handle,Bags,Clutch Bags,2017-11-25 13:54:35,9.0
19788,TBM12973247,10593,United Kingdom,Buckingham,51.999326,-0.9876450000000001,45.4654219,9.185924300000002,Italy,MILAN,Standard,No,6103.42.10 ,Clothing & Accessories,Trousers  overalls  shorts,Clothing,Trousers,2017-08-19 03:24:51,5.33
3227,GAT12489798,10387,Bulgaria,Sofia,42.6977082,23.3218675,38.3459963,-0.49068549999999994,Spain,Alicante,Express,No,4202.19.00,Bags & similar,Trunks  suitcases  vanity cases  executive-cases  briefcases  school satchels and similar,Lifestyle,Travel Accessories,2017-07-17 09:22:08,2.29
15543,CDB5166188,9765,Germany,München,48.1351253,11.5819806,50.937531,6.9602786,Germany,Koeln,Express,No,6109.10.00,Clothing & Accessories, T-shirts  singlets and other vests,Clothing,T-Shirts & Vests,2016-03-01 21:05:37,1.67
3888,MRI13435844,9610,Netherlands,Warmond,52.1942139,4.4992001,47.6062095,-122.33207079999998,United States,Seattle,Express,No,6202.11.00,Clothing & Accessories,Coats: overcoats  raincoat  cape  cloak  ski jackets  windcheaters  wind-jackets and similar articles,Clothing,Coats,2017-09-18 21:11:43,2.92
17690,ZOE10797361,9134,Singapore,Singapore,1.2800945,103.8509491,40.3572976,-74.6672226,United States,Princeton,Express,No,6403.59.30 ,Footwear with outer soles of rubber  plastics  leather or composition leather and uppers of leather,Other footwear with outer soles of leather,Shoes,Mules,2017-05-02 08:48:08,3.33
16894,BRC15917880,10952,Canada,Vancouver,49.261226,-123.11392679999999,51.652766,-0.028045,United Kingdom,Brimsdown,Express,No,6403.99.60  ,Footwear with outer soles of rubber  plastics  leather or composition leather and uppers of leather,Other footwear,Shoes,Low-Tops,2017-12-24 05:04:31,5.29
18515,CHR8729515,9114,Hong Kong,KLN,22.374783,114.194326,51.2787075,0.5217254,United Kingdom,Kent,Express,No,6203.31.90 ,Clothing & Accessories,Jackets and blazers,Clothing,Jackets,2017-01-04 07:09:11,2.17
1072,TZF5060027,9728,Hungary,Nyíregyháza,,,,,Italy,ALBANO SANT ALESSANDRO,Standard,No,6214.10.10 ,Clothing & Accessories,Shawls  scarves  mufflers  mantillas  veils and similar articles,Accessories,Scarves,2016-02-13 10:50:47,5.21
11351,JLF7928559,9306,China,Kunming,24.880095,102.832892,44.323287,12.291485,Italy,savio,Express,No,6203.11.90,Clothing & Accessories,Suits,Clothing,Suits,2016-11-17 15:25:02,6.75
11451,STF12789239,9336,Portugal,Lisboa,38.7222524,-9.1393366,38.0176177,12.537202,Italy,TRAPANI,Express,No,4202.31.60  ,Bags & similar,Articles of a kind normally carried in the pocket or in the handbag,Accessories,Wallets & Cardholders,2017-08-05 01:00:08,9.71
17647,BIO5586424,9017,Australia,Sydney,-33.8674869,151.2069902,48.856614,2.3522218999999995,France,Paris,Express,No,,,,Shoes,Sandals,2016-04-19 06:26:01,3.08
990,FUS6408837,9783,Estonia,Tabasalu alevik,59.4294432,24.547569699999997,40.64040670000001,15.8056041,Italy,Potenza,Express,No,6403.59.30 ,Footwear with outer soles of rubber  plastics  leather or composition leather and uppers of leather,Other footwear with outer soles of leather,Shoes,Sandals,2016-07-01 17:47:46,3.92
8701,LSH8283851,9529,Saudi Arabia,jeddah,21.5433333,39.1727778,45.838056,12.217222,Italy,COLFOSCO DI SUSEGANA  (TV),Express,No,6204.44.40  ,Clothing & Accessories,Dresses,Clothing,Dresses,2016-12-02 07:23:00,5.33
14120,IDI16838625,9600,Singapore,Singapore,1.2800945,103.8509491,43.2630126,-2.9349852,Spain,Bilbao,Express,No,6403.59.90 ,Footwear with outer soles of rubber  plastics  leather or composition leather and uppers of leather,Other footwear with outer soles of leather,Shoes,Ballerina Shoes,2018-01-16 15:43:15,1.79
13871,JAN17142561,9693,Portugal,S.Julião do Tojal,,,41.5454486,-8.426507,Portugal,Braga,Express,No,6203.42.40  ,Clothing & Accessories,Trousers  overalls  shorts,Clothing,Denim,2018-01-30 15:12:22,2.83
2960,3RO13588553,10529,United States,Paradise Valley,33.5311541,-111.9426452,29.7601927,-95.3693896,United States,Houston,Express,No,6206.40.30 ,Clothing & Accessories,Blouses  shirts and shirt-blouses,Clothing,Tops,2017-09-29 00:12:17,4.75
9189,NUG9192623,9681,Germany,Worms,49.6341372,8.350718199999998,41.2774857,16.4178334,Italy,TRANI,Standard,No,6205.20.20  ,Clothing & Accessories,Shirts,Clothing,Shirts,2017-01-21 13:47:57,4.92
9828,VTW15121235,10614,United States,West Hollywood,34.0900091,-118.3617443,52.2296756,21.0122287,Poland,warsaw,Express,No,4202.22.80 ,Bags & similar,Handbags  whether or not with shoulder strap  including those without handle,Bags,Clutch Bags,2017-11-25 02:38:43,9.46
19210,PRF15235458,9736,Italy,Castelfranco Veneto,45.6716942,11.9282388,50.82253,-0.137163,United Kingdom,Brighton,Standard,No,6110.20.20 ,Clothing & Accessories,Jerseys  pullovers  cardigans  waistcoats and similar articles  knitted or crocheted,Clothing,Sweaters & Knitwear,2017-11-26 20:55:45,4.75
2688,MBT9074773,9579,United States,IRVINE,33.6839473,-117.79469420000001,45.6765522,9.2367432,Italy,CARATE BRIANZA,Express,No,6110.30.30,Clothing & Accessories,Jerseys  pullovers  cardigans  waistcoats and similar articles  knitted or crocheted,Clothing,Knitwear,2017-01-13 19:23:40,4.62
4649,TAC7479032,9984,Japan,Minato-Ku,35.6580681,139.7515992,39.2982629,16.2537357,Italy,cosenza,Express,No,0000.00.00,default value,,Accessories,Wallets & Purses,2016-10-10 10:31:50,7.08
2983,DPR5282613,9334,United States,New York,40.7056308,-73.9780035,40.4643606,17.2470303,Italy,Taranto,Express,No,6404.20.60,Footwear with outer soles of rubber  plastics  leather or composition leather and uppers of textile materials,Footwear with outer soles of leather or composition leather,Shoes,Sandals,2016-03-17 16:49:39,3.75
7982,STF9089897,9336,China,Zhuhai,22.270715,113.576726,38.0176177,12.537202,Italy,TRAPANI,Express,No,0000.00.00,default value,,Clothing,Tops,2017-01-14 04:44:40,9.25
9593,POO6773600,10140,Japan,ishinomaki,38.4344802,141.3029167,48.1351253,11.5819806,Germany,Munich,Express,No,7117.11.00, Imitation jewellery,Of base metal  whether or not plated with precious metal,Accessories,Cufflinks,2016-07-23 07:09:49,9.38
16511,BOE6431997,9040,Saudi Arabia,RIYADH,24.7116667,46.7241667,51.369487,-0.365927,United Kingdom,Esher,Express,No,6204.59.40 ,Clothing & Accessories,Skirts,Clothing,Skirts,2016-07-04 04:17:47,14.71
7571,HZS18031341,10921,Hong Kong,Hong Kong,22.396428,114.10949699999999,51.6,6.6833333,Germany,Voerde,Express,No,4202.31.60  ,Bags & similar,Articles of a kind normally carried in the pocket or in the handbag,Lifestyle,Travel Accessories,2018-03-06 07:07:58,3.21
19382,MAL16463095,10133,Russian Federation,Vladimir,56.1445956,40.4178686,52.3116551,6.9268283,Netherlands,Oldenzaal,Express,No,6108.22.90 ,Clothing & Accessories,Briefs and panties,Clothing,Lingerie & Hosiery,2018-01-09 21:28:54,5.58
18397,VTW17074102,10614,Hong Kong,HONG KONG,22.396428,114.10949699999999,52.2296756,21.0122287,Poland,warsaw,Express,No,6403.99.90 ,Footwear with outer soles of rubber  plastics  leather or composition leather and uppers of leather,Other footwear,Shoes,Ballerina Shoes,2018-01-27 06:07:44,4.12
19824,VTK13843152,9462,U.A.E.,Abu Dhabi,24.4666667,54.3666667,52.2296756,21.0122287,Poland,warsaw,Express,No,4202.29.90 ,Bags & similar,Handbags  whether or not with shoulder strap  including those without handle,Bags,Clutch Bags,2017-10-14 13:48:18,3.83
18125,DAD9346692,9867,France,Paris,48.856614,2.3522218999999995,45.5686401,8.642255999999998,Italy,bellinzago novarese,Express,No,6110.11.00,Clothing & Accessories,Jerseys  pullovers  cardigans  waistcoats and similar articles  knitted or crocheted,Clothing,Sweaters & Knitwear,2017-02-02 13:48:55,3.88
1220,SGW10363233,9635,Hong Kong,Hong Kong,22.396428,114.10949699999999,48.7754181,9.1817588,Germany,Stuttgart,Express,No,6403.99.90 ,Footwear with outer soles of rubber  plastics  leather or composition leather and uppers of leather,Other footwear,Shoes,Pumps,2017-04-07 11:27:18,2.96
9058,JOF12901518,9300,Russian Federation,Rostov on Don,47.2166667,39.7,41.1498259,1.1055321000000002,Spain,Reus,Express,No,4303.10.00,Fur,Articles of apparel and clothing accessories,Accessories,Hair Accessories,2017-08-13 13:07:44,2.83
5985,JUK14242172,9966,Canada,Toronto,43.653226,-79.38318429999998,51.508515,-0.1254872,United Kingdom,London,Express,No,0000.00.00,default value,,Clothing,Knitwear,2017-11-03 21:18:09,4.71
3794,OOO16213903,9475,United States,New york,40.7056308,-73.9780035,44.801485,10.3279036,Italy,Parma,Express,No,6911.90.00,Tableware  kitchenware  other household articles and toilet articles  of porcelain or china,Other,Lifestyle,Homeware,2018-01-07 16:56:59,1.83
9153,WOK10142147,9031,United States,Sunnyvale,37.36883,-122.0363496,45.4654219,9.185924300000002,Italy,MILAN,Express,No,6404.11.90,Footwear with outer soles of rubber  plastics  leather or composition leather and uppers of textile materials,Footwear with outer soles of rubber or plastics,Shoes,Trainers,2017-03-26 03:40:51,3.29
3562,FLM16729232,9795,Brazil,São Paulo,-23.5505199,-46.6333094,40.7056308,-73.9780035,United States,New York,Express,No,6212.10.50 ,Clothing & Accessories,Brassi?res,Clothing,Lingerie & Hosiery,2018-01-12 23:39:02,9.42
17950,LRD9543400,9936,United States,West Lafayette,40.4258686,-86.9080655,40.4643606,17.2470303,Italy,Taranto,Express,No,6109.10.00,Clothing & Accessories, T-shirts  singlets and other vests,Clothing,T-Shirts & Vests,2017-02-17 00:59:41,3.46
13076,STF13174251,9336,Kuwait,Kuwait city,29.3697222,47.9783333,38.0176177,12.537202,Italy,TRAPANI,Express,No,0000.00.00,default value,,Shoes,Loafers,2017-09-01 19:18:44,7.62
16722,FEW15580938,10972,U.A.E.,Dubai,25.0476643,55.1817407,43.8320966,11.2042694,Italy,Sesto Fiorentino,Express,No,4205.00.80,Other articles of leather or of composition leather,Other,Bags,Bag Accessories,2017-12-09 15:30:43,7.67
8796,40017515560,10761,Bulgaria,Sofia,42.6977082,23.3218675,43.296482,5.36978,France,Marseille,Standard,No,6204.49.10 ,Clothing & Accessories,Dresses,Clothing,Dresses,2018-02-15 19:37:05,7.79
1484,BRO5333523,9359,Kuwait,Asimah  surra,,,51.508515,-0.1254872,United Kingdom,London,Express,No,6204.43.40  ,Clothing & Accessories,Dresses,Clothing,Dresses,2016-03-22 20:33:36,3.54
10215,VSF17022455,11032,Bahrain,Juffair  Manama,26.211111,50.601111,45.4920004,9.2981309,Italy,Segrate,Express,No,6109100000,Kids' Clothing & Accessories,T-shirts  singlets and other vests,Boys Clothing,Tops,2018-01-24 23:36:35,2.54
2779,STF5897358,9336,Azerbaijan,Baku,40.4349504,49.8676232,38.0176177,12.537202,Italy,TRAPANI,Express,No,0000.00.00,default value,,Clothing,Dresses,2016-05-20 19:46:26,6.79
15997,BBR12275076,9949,Japan,Ota,35.5496737,139.7858972,51.3313,0.445068,United Kingdom,Snodland,Express,No,6110.20.20 ,Clothing & Accessories,Jerseys  pullovers  cardigans  waistcoats and similar articles  knitted or crocheted,Clothing,Sweaters & Knitwear,2017-07-12 07:03:51,3.12
12304,LSH5763721,9529,Spain,Lleida,41.6175899,0.6200146,45.838056,12.217222,Italy,COLFOSCO DI SUSEGANA  (TV),Standard,No,6403.99.60  ,Footwear with outer soles of rubber  plastics  leather or composition leather and uppers of leather,Other footwear,Shoes,Trainers,2016-05-10 16:31:41,7.0
13842,MOD5493524,9889,United States,Woodside,37.4299388,-122.2538557,45.8349334,9.0270226,Switzerland,Chiasso,Express,No,6105.10.00,Clothing & Accessories,Shirts,Clothing,Polo Shirts,2016-04-08 17:41:03,3.79
5244,GIU7540396,9148,Korea  Republic of,SEOUL,37.53189329999999,126.9191163,52.205337,0.121817,United Kingdom,Cambridge,Express,No,4203.30.00,Bags & similar,Belts,Accessories,Belts,2016-10-16 13:38:37,3.92
18963,BRO7983280,9359,United States,new york,40.7056308,-73.9780035,51.508515,-0.1254872,United Kingdom,London,Express,No,6403.59.90 ,Footwear with outer soles of rubber  plastics  leather or composition leather and uppers of leather,Other footwear with outer soles of leather,Shoes,Pumps,2016-11-21 15:27:20,1.92
18796,LEC4771490,9089,Australia,stirling,-31.8809853,115.8093949,48.856614,2.3522218999999995,France,Paris,Express,No,6403.59.60 ,Footwear with outer soles of rubber  plastics  leather or composition leather and uppers of leather,Other footwear with outer soles of leather,Shoes,Derby Shoes,2016-01-21 10:38:26,4.04
13269,JPB16276633,9329,United States,Atlanta,33.7489954,-84.3879824,41.3850639,2.1734035,Spain,Barcelona,Express,No,,,,Accessories,Scarves,2018-01-08 10:34:46,8.08
4107,NOT6656375,9683,Russian Federation,Ekaterinburg,56.8333333,60.6,41.3850639,2.1734035,Spain,Barcelona,Express,No,6404.19.90  ,Footwear with outer soles of rubber  plastics  leather or composition leather and uppers of textile materials,Footwear with outer soles of rubber or plastics,Shoes,Sandals,2016-07-14 12:17:40,3.88
2310,LSH14951995,9529,Singapore,Singapore,1.2800945,103.8509491,45.838056,12.217222,Italy,COLFOSCO DI SUSEGANA  (TV),Express,No,4202.21.90  ,Bags & similar,Handbags  whether or not with shoulder strap  including those without handle,Accessories,Wallets & Purses,2017-11-24 03:14:47,4.29
16378,COL7366284,9763,Australia,Sydney,-33.8674869,151.2069902,43.5270861,13.246379699999999,Italy,Jesi,Express,No,6404.11.90,Footwear with outer soles of rubber  plastics  leather or composition leather and uppers of textile materials,Footwear with outer soles of rubber or plastics,Shoes,Trainers,2016-09-28 14:32:19,5.83
15151,STF7948540,9336,Russian Federation,Moscow,55.755826,37.6173,38.0176177,12.537202,Italy,TRAPANI,Express,No,0000.00.00,default value,,Shoes,Espadrilles,2016-11-19 08:48:18,5.33
3375,OOO15751763,9475,Korea  Republic of,busansi,,,44.801485,10.3279036,Italy,Parma,Express,No,6110.12.10 ,Clothing & Accessories,Jerseys  pullovers  cardigans  waistcoats and similar articles  knitted or crocheted,Clothing,Sweaters & Knitwear,2017-12-16 15:26:23,10.04
1252,PRT10187686,9671,China,Ha'erbin,,,44.0570817,12.5646003,Italy,Rimini,Express,No,6110.11.00,Clothing & Accessories,Jerseys  pullovers  cardigans  waistcoats and similar articles  knitted or crocheted,Clothing,Sweaters & Knitwear,2017-03-28 14:18:39,9.88
19764,FSC9744720,9535,Australia,Sydney,-33.8674869,151.2069902,38.7222524,-9.1393366,Portugal,Lisboa,Express,No,0000.00.00,default value,,Clothing,Skirts,2017-03-02 11:45:45,7.08
9590,SAN8743438,9006,Belgium,Antwerpen,51.2194475,4.4024643,43.7710332,11.2480006,Italy,Firenze,Standard,No,6203.33.20,Clothing & Accessories,Jackets and blazers,Clothing,Jackets,2017-01-05 09:08:32,4.08
2329,D2213265770,10230,Hong Kong,HONGKONG SHATIN,,,40.6824408,14.7680961,Italy,Salerno,Express,No,6110.20.20 ,Clothing & Accessories,Jerseys  pullovers  cardigans  waistcoats and similar articles  knitted or crocheted,Clothing,Sweaters & Knitwear,2017-09-07 18:02:53,2.83
3154,MNT11210002,9453,Russian Federation,Moscow,55.755826,37.6173,43.57248679999999,11.5230045,Italy,San Giovanni Valdarno,Express,No,6203.11.90,Clothing & Accessories,Suits,Clothing,Suits,2017-05-25 13:11:55,5.12
1032,DOP5861489,9954,United States,salt lake city,40.7607793,-111.8910474,,,Italy,Funo Di Argelato,Express,No,6109.10.00,Clothing & Accessories, T-shirts  singlets and other vests,Clothing,Polo Shirts,2016-05-18 00:44:23,5.42
15239,DPR11858109,9334,Brazil,Florianópolis,,,40.4643606,17.2470303,Italy,Taranto,Express,No,6202.13.40,Clothing & Accessories,Coats: overcoats  raincoat  cape  cloak  ski jackets  windcheaters  wind-jackets and similar articles,Clothing,Jackets,2017-06-27 03:18:09,6.38
18442,GRM13012954,9383,Australia,Sydney,-33.8674869,151.2069902,41.8723889,12.4801802,Italy,Rome,Express,No,0000.00.00,default value,,Clothing,Trousers,2017-08-22 04:16:37,3.42
8870,BRO10165388,9359,France,Arthaz Pont Notre Dame,,,51.508515,-0.1254872,United Kingdom,London,Standard,No,6404.11.90,Footwear with outer soles of rubber  plastics  leather or composition leather and uppers of textile materials,Footwear with outer soles of rubber or plastics,Shoes,Trainers,2017-03-27 11:54:25,3.92
12601,CHI11862216,9690,Russian Federation,Sochi,43.585278,39.720278,50.73743,7.0982068,Germany,Bonn,Express,No,6204.44.40  ,Clothing & Accessories,Dresses,Clothing,Dresses,2017-06-27 10:01:11,7.29
11753,GIW13749343,10659,Azerbaijan,Baku,40.4349504,49.8676232,52.205337,0.121817,United Kingdom,Cambridge,Express,No,4202.32.95,Bags & similar,Articles of a kind normally carried in the pocket or in the handbag,Accessories,Keyrings & Chains,2017-10-09 15:31:57,2.79
14453,GRM8088061,9383,United States,Bedford,32.844017,-97.1430671,41.8723889,12.4801802,Italy,Rome,Express,No,,,,Bags,Tote Bags,2016-11-25 03:14:08,3.29
2270,LEC8372696,9089,United States,Newark,40.735657,-74.1723667,48.856614,2.3522218999999995,France,Paris,Express,No,6505.90.30 ,Hats and Headwear,Hats and other headgear  knitted or crocheted  or made-up from lace  felt or other textile fabric  in the piece (but not in strips)  whether or not lined or trimmed,Accessories,Hats,2016-12-07 22:53:32,1.83
6975,DLB10421002,9026,Russian Federation,Moscow,55.755826,37.6173,40.8517746,14.268124400000001,Italy,Naples,Express,No,6404.11.20,Footwear with outer soles of rubber  plastics  leather or composition leather and uppers of textile materials,Footwear with outer soles of rubber or plastics,Shoes,Trainers,2017-04-10 23:40:08,2.67
14394,TZF7914446,9728,Germany,gmund,47.7507179,11.7349585,,,Italy,ALBANO SANT ALESSANDRO,Standard,No,0000.00.00,default value,,Clothing,Tops,2016-11-16 09:37:24,0.96
11142,SPS9700438,9309,Canada,Vancouver,49.261226,-123.11392679999999,43.8159671,7.7760567,Italy,SANREMO,Express,No,0000.00.00,default value,,Clothing,Jackets,2017-02-28 03:28:50,2.29
10763,SPS5196513,9309,United States,new york,40.7056308,-73.9780035,43.8159671,7.7760567,Italy,SANREMO,Express,No,6203.42.40  ,Clothing & Accessories,Trousers  overalls  shorts,Clothing,Denim,2016-03-05 22:03:18,2.71
7154,CHR12649876,9114,Cambodia,PHNOM PENH,11.544872900000001,104.89216680000001,51.2787075,0.5217254,United Kingdom,Kent,Express,No,6109.10.00,Clothing & Accessories, T-shirts  singlets and other vests,Clothing,Tops,2017-07-27 10:53:23,3.96
4578,VIN9448442,9796,Russian Federation,Moscow,55.755826,37.6173,45.611892,8.8531265,Italy,Busto Arsizio,Express,No,6203.42.40  ,Clothing & Accessories,Trousers  overalls  shorts,Clothing,Denim,2017-02-10 05:38:10,5.46
5655,MEG5745926,10045,United States,Bridgeport,41.18654779999999,-73.1951767,52.091874,5.0966227,Netherlands,Utrecht,Express,No,6109.10.00,Clothing & Accessories, T-shirts  singlets and other vests,Clothing,Tops,2016-05-08 15:31:45,4.12
5497,DVC16739877,9921,Cyprus,Ayia Napa,34.983333,34.0,,,Italy,SANT ANASTASIA,Express,No,6109.10.00,Clothing & Accessories, T-shirts  singlets and other vests,Clothing,T-Shirts & Vests,2018-01-13 04:03:00,4.46
19203,VTK15689793,9462,United States,Brooklyn,40.6927778,-73.9902778,52.2296756,21.0122287,Poland,warsaw,Express,No,6203.42.40  ,Clothing & Accessories,Trousers  overalls  shorts,Clothing,Trousers,2017-12-14 04:45:50,1.29
13673,NOT13778553,9683,Russian Federation,Krasnodar,45.0333333,38.9666667,41.3850639,2.1734035,Spain,Barcelona,Express,No,6110.20.20 ,Clothing & Accessories,Jerseys  pullovers  cardigans  waistcoats and similar articles  knitted or crocheted,Clothing,Tops,2017-10-11 12:01:12,8.92
14571,LUC12911485,9897,Cambodia,Phnom Penh,11.544872900000001,104.89216680000001,41.1171432,16.8718715,Italy,Bari,Express,No,6404.19.30  ,Footwear with outer soles of rubber  plastics  leather or composition leather and uppers of textile materials,Footwear with outer soles of rubber or plastics,Shoes,Flip Flops & Slides,2017-08-14 09:47:27,4.17
6565,MBT5501844,9579,Korea  Republic of,seodaemun,,,45.6765522,9.2367432,Italy,CARATE BRIANZA,Express,No,0000.00.00,default value,,Clothing,Jackets,2016-04-09 16:51:52,4.62
14573,LSH9454805,9529,United Kingdom,London,51.508515,-0.1254872,45.838056,12.217222,Italy,COLFOSCO DI SUSEGANA  (TV),Standard,No,6203.42.40  ,Clothing & Accessories,Trousers  overalls  shorts,Clothing,Denim,2017-02-10 15:13:16,5.83
5288,TSS5170161,9053,Romania,Ploiesti,44.94,26.03,45.8080597,9.0851765,Italy,Como,Express,No,0000.00.00,default value,,Shoes,Flip Flops & Slides,2016-03-02 09:29:38,2.25
2710,RCA14232056,9274,Russian Federation,Moskva,55.755826,37.6173,40.55320089999999,14.222154000000002,Italy,CAPRI,Express,No,6115.29.80 ,Clothing & Accessories,Pantyhose  tights,Clothing,Underwear & Socks,2017-11-03 08:00:06,4.17
13143,MNT11749494,9453,Hong Kong,HONG KONG,22.396428,114.10949699999999,43.57248679999999,11.5230045,Italy,San Giovanni Valdarno,Express,No,6404.11.20,Footwear with outer soles of rubber  plastics  leather or composition leather and uppers of textile materials,Footwear with outer soles of rubber or plastics,Shoes,Trainers,2017-06-21 10:24:34,3.0
4320,DDU4763035,9154,United Kingdom,Stirling,56.1165227,-3.9369029,41.1171432,16.8718715,Italy,Bari,Standard,No,6109.10.00,Clothing & Accessories, T-shirts  singlets and other vests,Clothing,T-Shirts & Vests,2016-01-21 00:32:20,6.75
16777,ETR17999412,9319,Hong Kong,Hong Kong,22.396428,114.10949699999999,45.1564168,10.7913751,Italy,Mantova,Express,No,0000.00.00,default value,,Shoes,Pumps,2018-03-05 04:49:06,3.21
11477,IDI9596184,9600,United States,New York,40.7056308,-73.9780035,43.2630126,-2.9349852,Spain,Bilbao,Express,No,6404.11.90,Footwear with outer soles of rubber  plastics  leather or composition leather and uppers of textile materials,Footwear with outer soles of rubber or plastics,Shoes,Trainers,2017-02-20 21:07:06,1.58
10638,ETI8102531,9774,Korea  Republic of,Gumi-si,36.119485,128.34457340000003,45.1316088,8.450502999999998,Italy,Casale Monferrato,Express,No,0000.00.00,default value,,Clothing,Trousers,2016-11-25 08:01:56,5.33
1595,GRI8853631,10224,United States,philadelphia,39.952335,-75.16378899999998,40.7379299,13.9486184,Italy,Ischia,Express,No,6404.11.20,Footwear with outer soles of rubber  plastics  leather or composition leather and uppers of textile materials,Footwear with outer soles of rubber or plastics,Shoes,Hi-Tops,2017-01-09 18:33:01,7.96
11278,TZF12654562,9728,Australia,St Leonards,-33.8234435,151.19358290000002,,,Italy,ALBANO SANT ALESSANDRO,Express,No,4202.21.90  ,Bags & similar,Handbags  whether or not with shoulder strap  including those without handle,Bags,Satchels & Cross Body Bags,2017-07-27 15:26:20,3.96
2074,PLM16434214,10567,Australia,Melbourne,-37.814107,144.96328,33.8886289,35.4954794,Lebanon,Beirut,Express,No,6404.11.20,Footwear with outer soles of rubber  plastics  leather or composition leather and uppers of textile materials,Footwear with outer soles of rubber or plastics,Shoes,Low-Tops,2018-01-09 15:21:36,5.96
16569,DVO10141102,9474,United States,irvine,33.6839473,-117.79469420000001,,,Italy,Santa Maria a monte,Express,No,6109.10.00,Clothing & Accessories, T-shirts  singlets and other vests,Clothing,T-Shirts & Vests,2017-03-26 00:45:49,4.46
4179,SEN12793700,10169,Russian Federation,Moscow,55.755826,37.6173,-33.8906466,151.2129254,Australia,Surry Hills,Express,No,6403.99.90 ,Footwear with outer soles of rubber  plastics  leather or composition leather and uppers of leather,Other footwear,Shoes,Mules,2017-08-05 11:19:48,4.96
13302,CUM11813412,9530,Japan,TOYONAKA,34.7812658,135.4697387,46.2752671,13.1426773,Italy,Gemona del friuli,Express,No,6206.10.00,Clothing & Accessories,Blouses  shirts and shirt-blouses,Clothing,Tops,2017-06-24 14:37:18,4.04
10973,PRJ9168754,9860,Denmark,vejen,55.479224,9.137997,43.552847,7.017369,France,Cannes,Express,No,6110.20.20 ,Clothing & Accessories,Jerseys  pullovers  cardigans  waistcoats and similar articles  knitted or crocheted,Clothing,Sweaters & Knitwear,2017-01-19 15:00:05,5.08
6872,BRO5993716,9359,United States,Los Angeles,34.0522342,-118.2436849,51.508515,-0.1254872,United Kingdom,London,Express,No,4202.21.90  ,Bags & similar,Handbags  whether or not with shoulder strap  including those without handle,Bags,Clutch Bags,2016-05-27 16:56:09,10.04
16283,PAL10925639,9016,Saudi Arabia,Riyadh,24.7116667,46.7241667,45.649339,9.1444237,Italy,Seveso,Express,No,4202.39.90 ,Bags & similar,Articles of a kind normally carried in the pocket or in the handbag,Accessories,Make Up Bags,2017-05-10 07:31:11,3.17
11383,HUC12571130,10065,New Zealand,Auckland,-36.8484597,174.7633315,51.508515,-0.1254872,United Kingdom,London,Express,No,6110202000,Kids' Clothing & Accessories,Jerseys  pullovers  cardigans  waistcoats and similar articles  knitted or crocheted,Girls Clothing,Tops,2017-07-22 12:47:54,6.04
7114,BRC15320437,10952,Hong Kong,hk,22.396428,114.10949699999999,51.652766,-0.028045,United Kingdom,Brimsdown,Express,No,0000.00.00,default value,,Bags,Tote Bags,2017-11-29 06:32:28,5.17
5055,RBK17617439,10586,China,Chongqing,29.56301,106.551557,40.9731743,14.207668799999999,Italy,Aversa,Express,No,6110202000,Kids' Clothing & Accessories,Jerseys  pullovers  cardigans  waistcoats and similar articles  knitted or crocheted,Girls Clothing,Tops,2018-02-20 10:26:38,3.17
10074,VSB8653384,9501,Australia,Melbourne,-37.814107,144.96328,50.1109221,8.682126699999998,Germany,Frankfurt Am Main,Express,No,4202.39.90 ,Bags & similar,Articles of a kind normally carried in the pocket or in the handbag,Accessories,Wallets & Purses,2016-12-28 12:57:21,6.08
14027,LSH5214873,9529,Japan,awajimachi cyuoku osaka-shi,,,45.838056,12.217222,Italy,COLFOSCO DI SUSEGANA  (TV),Express,No,6110.90.10 ,Clothing & Accessories,Jerseys  pullovers  cardigans  waistcoats and similar articles  knitted or crocheted,Clothing,Tops,2016-03-08 23:35:37,5.62
3089,OOO5911952,9475,Canada,Burnaby,49.2294908,-123.0025753,44.801485,10.3279036,Italy,Parma,Express,No,6110.30.30,Clothing & Accessories,Jerseys  pullovers  cardigans  waistcoats and similar articles  knitted or crocheted,Clothing,Sweaters & Knitwear,2016-05-21 22:32:49,8.54
14937,EXC8772786,9727,China,Beijing,39.90403,116.407526,45.4654219,9.185924300000002,Italy,MILAN,Express,No,6214.10.10 ,Clothing & Accessories,Shawls  scarves  mufflers  mantillas  veils and similar articles,Accessories,Scarves,2017-01-07 13:46:35,6.04
11764,SDS16891925,10267,France,Paris,48.856614,2.3522218999999995,43.7710332,11.2480006,Italy,Firenze,Standard,No,6110.11.00,Clothing & Accessories,Jerseys  pullovers  cardigans  waistcoats and similar articles  knitted or crocheted,Clothing,Sweaters & Knitwear,2018-01-18 19:32:48,4.75
13339,SWL4588057,9022,Denmark,Lystrup,56.2316307,10.2303381,41.44253,-8.2917857,Portugal,Guimaraes,Express,No,6404.11.20,Footwear with outer soles of rubber  plastics  leather or composition leather and uppers of textile materials,Footwear with outer soles of rubber or plastics,Shoes,Hi-Tops,2016-01-03 22:25:33,3.71
3768,PNW15826018,9377,United States,Gettysburg,39.8309293,-77.23109549999998,40.7056308,-73.9780035,United States,New York,Express,No,7117.90.90 , Imitation jewellery,Other,Jewellery,Necklaces,2017-12-19 15:55:37,2.0
6459,GRM10851202,9383,Italy,Grottaminarda,41.0726871,15.062331699999998,41.8723889,12.4801802,Italy,Rome,Standard,No,6404.11.20,Footwear with outer soles of rubber  plastics  leather or composition leather and uppers of textile materials,Footwear with outer soles of rubber or plastics,Shoes,Trainers,2017-05-05 08:13:22,3.04
11342,GLA13389575,9466,Russian Federation,Moscow,55.755826,37.6173,41.8781136,-87.62979819999998,United States,Chicago,Express,No,0000.00.00,default value,,Clothing,Trousers,2017-09-15 18:39:57,4.67
4604,GIU10267025,9148,Brazil,Londrina,-23.3044524,-51.1695824,52.205337,0.121817,United Kingdom,Cambridge,Express,No,6109.10.00,Clothing & Accessories, T-shirts  singlets and other vests,Clothing,T-Shirts & Vests,2017-04-01 19:13:13,4.67
10760,ODD13070420,9485,China,Chaoyang District  Beijing,,,40.6927778,-73.9902778,United States,Brooklyn,Express,No,6103.49.10 ,Clothing & Accessories,Trousers  overalls  shorts,Clothing,Knitwear,2017-08-25 16:00:18,10.0
5339,BTR13882388,9808,China,Suzhou,31.298886,120.585316,43.04434439999999,11.8137616,Italy,Chianciano Terme,Express,No,6104.41.00,Clothing & Accessories,Dresses,Clothing,Knitwear,2017-10-16 13:16:33,14.83
13951,ALD6962475,9178,Canada,Toronto,43.653226,-79.38318429999998,45.4934881,12.2463181,Italy,MESTRE,Express,No,6203.11.90,Clothing & Accessories,Suits,Clothing,Suits,2016-08-14 15:14:40,9.0
9290,STF14711146,9336,China,Shanghai,31.230416,121.473701,38.0176177,12.537202,Italy,TRAPANI,Express,No,0000.00.00,default value,,Clothing,Skirts,2017-11-21 10:47:02,13.96
10192,ELI16169190,9436,Bulgaria,Sofia,42.6977082,23.3218675,36.5000347,-4.9716236,Spain,Nueva andalucia,Express,No,6203.42.40  ,Clothing & Accessories,Trousers  overalls  shorts,Clothing,Trousers,2018-01-05 19:31:38,3.75
17127,ODD9485359,9485,United States,Morgantown,39.629526,-79.9558968,40.6927778,-73.9902778,United States,Brooklyn,Standard,No,6214.20.00,Clothing & Accessories,Shawls  scarves  mufflers  mantillas  veils and similar articles,Accessories,Scarves,2017-02-13 01:03:35,2.5
17173,BIO5961098,9017,Poland,Przemysl,49.7838623,22.7677908,48.856614,2.3522218999999995,France,Paris,Express,No,6403.59.90 ,Footwear with outer soles of rubber  plastics  leather or composition leather and uppers of leather,Other footwear with outer soles of leather,Shoes,Pumps,2016-05-25 15:16:53,4.88
10753,SHG6474121,9755,Russian Federation,MOSKVA,55.755826,37.6173,46.0065117,8.9523121,Switzerland,Lugano,Express,No,6206.30.30 ,Clothing & Accessories,Blouses  shirts and shirt-blouses,Clothing,Tops,2016-07-08 10:23:01,3.04
8772,NID15638867,9452,United States,Atlanta,33.7489954,-84.3879824,41.0723484,14.3311337,Italy,Caserta,Express,No,6505.90.30 ,Hats and Headwear,Hats and other headgear  knitted or crocheted  or made-up from lace  felt or other textile fabric  in the piece (but not in strips)  whether or not lined or trimmed,Accessories,Hats,2017-12-12 03:17:53,6.5
6904,JPB4630378,9329,United Kingdom,Leeds,53.8007554,-1.5490774,41.3850639,2.1734035,Spain,Barcelona,Express,No,6205.20.20  ,Clothing & Accessories,Shirts,Clothing,Shirts,2016-01-09 17:52:50,8.0
3777,CAF15838819,10207,United Kingdom,London,51.508515,-0.1254872,44.4325,26.1038889,Romania,Bucharest,Express,No,6404.11.20,Footwear with outer soles of rubber  plastics  leather or composition leather and uppers of textile materials,Footwear with outer soles of rubber or plastics,Shoes,Hi-Tops,2017-12-20 03:10:21,1.33
13577,ATO9417589,9843,Russian Federation,Novosibirsk,55.0083526,82.9357327,45.4654219,9.185924300000002,Italy,Milano,Express,No,6206.90.00,Clothing & Accessories,Blouses  shirts and shirt-blouses,Clothing,Tops,2017-02-08 03:27:46,2.25
8232,RCA16571996,9274,United Kingdom,London,51.508515,-0.1254872,40.55320089999999,14.222154000000002,Italy,CAPRI,Standard,No,6203.42.40  ,Clothing & Accessories,Trousers  overalls  shorts,Clothing,Trousers,2018-01-11 01:31:22,5.33
12545,ATL5973514,9499,United States,Las Vegas,36.255123,-115.23834850000001,40.7056308,-73.9780035,United States,New York,Standard,No,6203.32.20  ,Clothing & Accessories,Jackets and blazers,Clothing,Tops,2016-05-26 10:57:06,7.08
12129,QDZ16909979,9938,United States,San Francisco,37.7749295,-122.4194155,45.4383842,10.9916215,Italy,Verona,Express,No,6110.11.00,Clothing & Accessories,Jerseys  pullovers  cardigans  waistcoats and similar articles  knitted or crocheted,Clothing,Knitwear,2018-01-19 16:28:26,4.71
6015,ATO9773888,9843,Malaysia,Kuala Lumpur,3.139003,101.686855,45.4654219,9.185924300000002,Italy,Milano,Express,No,0000.00.00,default value,,Clothing,T-Shirts & Vests,2017-03-04 01:59:47,6.38
8960,BRN8213839,9111,United States,Washington,38.9072309,-77.0364641,45.1564168,10.7913751,Italy,Mantova,Express,No,4202.22.80 ,Bags & similar,Handbags  whether or not with shoulder strap  including those without handle,Bags,Tote Bags,2016-11-28 14:41:53,3.96
152,PRA11867824,10577,United States,NEW YORK,40.7056308,-73.9780035,43.963318,12.7384318,Italy,Cattolica,Express,No,6404.11.90,Footwear with outer soles of rubber  plastics  leather or composition leather and uppers of textile materials,Footwear with outer soles of rubber or plastics,Shoes,Trainers,2017-06-27 15:36:25,1.92
5853,MTI17351724,9644,Russian Federation,Rostov-on-Don,47.2166667,39.7,44.1396438,12.246429199999998,Italy,CESENA (FC),Express,No,6404.11.90,Footwear with outer soles of rubber  plastics  leather or composition leather and uppers of textile materials,Footwear with outer soles of rubber or plastics,Shoes,Low-Tops,2018-02-08 17:59:07,6.62
6848,VTK7479817,9462,Russian Federation,Rostov-on-Don,47.2166667,39.7,52.2296756,21.0122287,Poland,warsaw,Express,No,6109.10.00,Clothing & Accessories, T-shirts  singlets and other vests,Clothing,T-Shirts & Vests,2016-10-10 12:03:32,4.17
2210,JLF12193300,9306,Korea  Republic of,Seoul City,37.53189329999999,126.9191163,44.323287,12.291485,Italy,savio,Express,No,4202.31.60  ,Bags & similar,Articles of a kind normally carried in the pocket or in the handbag,Accessories,Wallets & Cardholders,2017-07-11 04:58:51,6.21
1374,VTK9693555,9462,Kuwait,kuwait city,29.3697222,47.9783333,52.2296756,21.0122287,Poland,warsaw,Express,No,4203.10.40,Clothing & Accessories,Items of leather clothing & accessories,Jewellery,Bracelets,2017-02-27 15:27:07,3.0
654,TOA12125787,10580,Russian Federation,Moscow,55.755826,37.6173,54.6871555,25.2796514,Lithuania,Vilnius,Express,No,6404.19.90  ,Footwear with outer soles of rubber  plastics  leather or composition leather and uppers of textile materials,Footwear with outer soles of rubber or plastics,Shoes,Low-Tops,2017-07-10 12:53:27,1.12
9402,ACB15472501,9970,Australia,Sydney,-33.8674869,151.2069902,43.949317,4.805528,France,Avignon,Express,No,6403.99.60  ,Footwear with outer soles of rubber  plastics  leather or composition leather and uppers of leather,Other footwear,Shoes,Low-Tops,2017-12-05 05:22:12,5.21
17830,VI215378917,11004,United States,New York,40.7056308,-73.9780035,45.7586155,8.558182399999998,Italy,Arona,Express,No,6110.12.20 ,Clothing & Accessories,Jerseys  pullovers  cardigans  waistcoats and similar articles  knitted or crocheted,Clothing,Sweaters & Knitwear,2017-12-01 12:07:14,5.0
2863,STU11508165,9564,China,Zaozhuang,,,45.04737539999999,9.6865813,Italy,Piacenza,Express,No,0000.00.00,default value,,Shoes,Pumps,2017-06-09 16:03:44,8.71
5428,MAD5996855,9670,United States,Seattle,47.6062095,-122.33207079999998,34.0736204,-118.40035630000001,United States,Beverly Hills,Standard,No,6403.59.90 ,Footwear with outer soles of rubber  plastics  leather or composition leather and uppers of leather,Other footwear with outer soles of leather,Shoes,Lace-up Shoes,2016-05-27 21:49:52,6.71
4041,TSB7861742,9638,United States,New York,40.7056308,-73.9780035,51.508515,-0.1254872,United Kingdom,London,Express,No,4303.10.00,Fur,Articles of apparel and clothing accessories,Accessories,Scarves,2016-11-11 23:34:11,3.54
12232,DLV10472423,10565,United Kingdom,essex,51.7668369,0.4757762,36.255123,-115.23834850000001,United States,Las Vegas,Express,No,6505.90.25 ,Hats and Headwear,Hats and other headgear  knitted or crocheted  or made-up from lace  felt or other textile fabric  in the piece (but not in strips)  whether or not lined or trimmed,Accessories,Hats,2017-04-14 10:07:37,5.04
1061,TAJ8701771,10297,Russian Federation,Krasnodar,45.0333333,38.9666667,45.8080597,9.0851765,Italy,Como,Express,No,6203424000,Kids' Clothing & Accessories,Trousers  overalls  shorts,Boys Clothing,Denim,2017-01-01 23:24:17,8.46
7904,BCM10918605,9158,Russian Federation,Khimki,55.8940553,37.4439487,45.4654219,9.185924300000002,Italy,Milano,Express,No,6403.99.60  ,Footwear with outer soles of rubber  plastics  leather or composition leather and uppers of leather,Other footwear,Shoes,Loafers,2017-05-09 21:20:38,2.67
17540,ALD9103463,9178,Italy,Palazzo canavese,,,45.4934881,12.2463181,Italy,MESTRE,Standard,No,,,,Accessories,Cufflinks,2017-01-14 16:09:23,3.79
13276,BRO6383133,9359,Russian Federation,SURGUT,61.2666667,73.4,51.508515,-0.1254872,United Kingdom,London,Express,No,6105.90.10 ,Clothing & Accessories,Shirts,Clothing,Sweaters & Knitwear,2016-06-29 17:06:52,4.71
5850,BRO8184259,9359,Hong Kong,HONGKONG,22.396428,114.10949699999999,51.508515,-0.1254872,United Kingdom,London,Express,No,6403.59.90 ,Footwear with outer soles of rubber  plastics  leather or composition leather and uppers of leather,Other footwear with outer soles of leather,Shoes,Ballerina Shoes,2016-11-27 06:01:33,9.62
6800,MTI13686374,9644,Italy,Moncalieri,44.9983525,7.6802878,44.1396438,12.246429199999998,Italy,CESENA (FC),Standard,No,6201.13.10 ,Clothing & Accessories,Coats: overcoats  raincoat  cape  cloaks and similar articles,Clothing,Jackets,2017-10-05 14:03:15,5.08
1785,MRI14798685,9610,China,Shaoxing,29.995762,120.586109,47.6062095,-122.33207079999998,United States,Seattle,Express,No,6202.13.10 ,Clothing & Accessories,Coats: overcoats  raincoat  cape  cloak  ski jackets  windcheaters  wind-jackets and similar articles,Clothing,Coats,2017-11-22 15:00:11,8.04
14923,LFL9808335,10004,United States,Chicago,41.8781136,-87.62979819999998,43.4632839,11.8796336,Italy,Arezzo,Express,No,6206.30.30 ,Clothing & Accessories,Blouses  shirts and shirt-blouses,Clothing,Tops,2017-03-06 03:49:44,2.54
14832,JLF8632906,9306,Mexico,Boca del Rio,19.1400064,-96.1155932,44.323287,12.291485,Italy,savio,Express,No,0000.00.00,default value,,Clothing,T-Shirts & Vests,2016-12-26 22:54:09,6.46
4861,VTK8952804,9462,Singapore,Singapore,1.2800945,103.8509491,52.2296756,21.0122287,Poland,warsaw,Express,No,4202.29.90 ,Bags & similar,Handbags  whether or not with shoulder strap  including those without handle,Bags,Clutch Bags,2017-01-11 07:42:42,7.33
2607,LSH8019964,9529,United States,Lillington,35.399327,-78.8158528,45.838056,12.217222,Italy,COLFOSCO DI SUSEGANA  (TV),Express,No,,,,Clothing,T-Shirts & Vests,2016-11-22 22:00:23,12.62
18302,CIT9380119,10044,Russian Federation,Saint -Petersburg,59.9342802,30.3350986,35.6894875,139.6917064,Japan,Tokyo,Express,No,6201.11.00,Clothing & Accessories,Coats: overcoats  raincoat  cape  cloaks and similar articles,Clothing,Coats,2017-02-05 09:56:53,8.08
12891,BLN16915651,9870,United Kingdom,Brighton,50.82253,-0.137163,44.1689028,8.341621099999998,Italy,Finale Ligure,Standard,No,6404.11.90,Footwear with outer soles of rubber  plastics  leather or composition leather and uppers of textile materials,Footwear with outer soles of rubber or plastics,Shoes,Trainers,2018-01-19 21:55:53,5.75
10905,BRN5273572,9111,United Kingdom,liverpool,53.40837140000001,-2.9915726,45.1564168,10.7913751,Italy,Mantova,Express,No,0000.00.00,default value,,Clothing,Sweaters & Knitwear,2016-03-16 22:14:23,8.58
15362,PAP6267885,9544,Japan,syuunannshi ooaza yobisaka 1006-309,,,37.5078772,15.0830304,Italy,Catania,Express,No,6109.10.00,Clothing & Accessories, T-shirts  singlets and other vests,Clothing,T-Shirts & Vests,2016-06-19 13:48:03,6.0
15666,TAC7913897,9984,Japan,FUJI-SHI,35.1613985,138.6762728,39.2982629,16.2537357,Italy,cosenza,Express,No,4202.39.90 ,Bags & similar,Articles of a kind normally carried in the pocket or in the handbag,Lifestyle,Phone  Computer & Gadgets,2016-11-16 08:13:33,5.08
18741,SUS7777555,9422,Lithuania,Vilnius,54.6871555,25.2796514,40.4167754,-3.7037902,Spain,Madrid,Express,No,6203.42.40  ,Clothing & Accessories,Trousers  overalls  shorts,Clothing,Trousers,2016-11-08 22:21:30,2.67
2686,MRI9107032,9610,United States,Palm Beach,26.7056206,-80.0364297,47.6062095,-122.33207079999998,United States,Seattle,Standard,No,6110.12.20 ,Clothing & Accessories,Jerseys  pullovers  cardigans  waistcoats and similar articles  knitted or crocheted,Clothing,Knitwear,2017-01-14 20:34:15,9.0
11473,GRM7913850,9383,Russian Federation,Moscow,55.755826,37.6173,41.8723889,12.4801802,Italy,Rome,Express,No,,,,Clothing,Trousers,2016-11-16 08:04:45,5.08
7846,VIN14032723,9796,France,Monaco,43.737411,7.420816,45.611892,8.8531265,Italy,Busto Arsizio,Standard,No,6403.59.90 ,Footwear with outer soles of rubber  plastics  leather or composition leather and uppers of leather,Other footwear with outer soles of leather,Shoes,Pumps,2017-10-24 10:31:23,3.0
14040,CUC13145374,9339,United States,Sterling,39.0066993,-77.4291298,43.548473,10.3105674,Italy,Livorno,Express,No,6204.53.30 ,Clothing & Accessories,Skirts,Clothing,Skirts,2017-08-31 02:56:27,5.33
5995,CHK8913740,9573,United Kingdom,London,51.508515,-0.1254872,40.7056308,-73.9780035,United States,New York,Express,No,6404.20.60,Footwear with outer soles of rubber  plastics  leather or composition leather and uppers of textile materials,Footwear with outer soles of leather or composition leather,Shoes,Boots,2017-01-10 15:29:31,1.79
9423,ALD10428634,9178,Australia,Sydney,-33.8674869,151.2069902,45.4934881,12.2463181,Italy,MESTRE,Express,No,,,,Clothing,Jackets,2017-04-11 12:22:24,6.92
18165,ACS16584280,9628,Mexico,Monterrey,25.6866142,-100.3161126,50.937531,6.9602786,Germany,Cologne,Express,No,6403.99.90 ,Footwear with outer soles of rubber  plastics  leather or composition leather and uppers of leather,Other footwear,Shoes,Boots,2018-01-11 06:32:18,8.62
17978,MNT9943108,9453,Saudi Arabia,Al Khobar,26.2180138,50.19645,43.57248679999999,11.5230045,Italy,San Giovanni Valdarno,Express,No,6109.10.00,Clothing & Accessories, T-shirts  singlets and other vests,Clothing,Polo Shirts,2017-03-13 22:52:20,2.92
7117,ENN9875303,10158,Hong Kong,Hong Kong,22.396428,114.10949699999999,,,Greece,PHILOTHEI,Express,No,6206.30.30 ,Clothing & Accessories,Blouses  shirts and shirt-blouses,Clothing,Tops,2017-03-09 15:15:02,1.04
12973,BRO8794756,9359,Russian Federation,Moscow,55.755826,37.6173,51.508515,-0.1254872,United Kingdom,London,Express,No,0000.00.00,default value,,Shoes,Sandals,2017-01-09 09:12:31,2.04
14666,GIW13769924,10659,United Kingdom,Norwich,52.6308859,1.297355,52.205337,0.121817,United Kingdom,Cambridge,Express,No,4202.21.90  ,Bags & similar,Handbags  whether or not with shoulder strap  including those without handle,Bags,Satchels & Cross Body Bags,2017-10-10 20:32:13,2.58
12196,STF10767566,9336,Japan,MINATO KU - NISHIAZABU,,,38.0176177,12.537202,Italy,TRAPANI,Express,No,0000.00.00,default value,,Shoes,Lace-up Shoes,2017-04-30 13:56:45,7.79
11530,BRC16834052,10952,Austria,Lienz,46.82769,12.76272,51.652766,-0.028045,United Kingdom,Brimsdown,Standard,No,6110.20.20 ,Clothing & Accessories,Jerseys  pullovers  cardigans  waistcoats and similar articles  knitted or crocheted,Clothing,Sweaters & Knitwear,2018-01-16 11:57:07,5.96
19446,PRR11757135,10575,Russian Federation,Moscow,55.755826,37.6173,44.0570817,12.5646003,Italy,Rimini,Express,No,6404.11.20,Footwear with outer soles of rubber  plastics  leather or composition leather and uppers of textile materials,Footwear with outer soles of rubber or plastics,Shoes,Hi-Tops,2017-06-21 17:35:38,1.88
13001,TSS10340687,9053,United States,Bellevue,47.610377,-122.20067859999999,45.8080597,9.0851765,Italy,Como,Express,No,6203.32.20  ,Clothing & Accessories,Jackets and blazers,Clothing,Jackets,2017-04-06 03:28:07,4.33
629,DAN6454852,9597,Australia,SYDNEY,-33.8674869,151.2069902,40.9844523,14.218948,Italy,Carinaro,Express,No,6203.43.20 ,Clothing & Accessories,Trousers  overalls  shorts,Clothing,Trousers,2016-07-06 10:51:00,4.96
14568,BRH17535954,10361,Japan,SUMIDA KU - KOTOBASHI,,,51.652766,-0.028045,United Kingdom,Brimsdown,Express,No,6110.20.20 ,Clothing & Accessories,Jerseys  pullovers  cardigans  waistcoats and similar articles  knitted or crocheted,Clothing,Sweaters & Knitwear,2018-02-16 17:29:11,4.79
1459,PAP16774256,9544,Italy,Parma,44.801485,10.3279036,37.5078772,15.0830304,Italy,Catania,Standard,No,6109.10.00,Clothing & Accessories, T-shirts  singlets and other vests,Clothing,T-Shirts & Vests,2018-01-13 19:53:01,4.62
18347,CGB14928031,10012,United States,Great Neck,40.8006567,-73.7284647,45.7657286,11.7272747,Italy,bassano del grappa,Express,No,6404.11.20,Footwear with outer soles of rubber  plastics  leather or composition leather and uppers of textile materials,Footwear with outer soles of rubber or plastics,Shoes,Trainers,2017-11-23 23:44:45,3.54
18532,DOG6013018,9258,Russian Federation,Moscow,55.755826,37.6173,38.1156879,13.3612671,Italy,Palermo,Express,No,,,,Bags,Tote Bags,2016-05-29 08:58:36,5.08
1369,SOL10428383,9341,Romania,Constanta,44.1733333,28.6383333,45.764043,4.835659,France,Lyon,Express,No,4202.11.00,Bags & similar,Trunks  suitcases  vanity cases  executive-cases  briefcases  school satchels and similar,Bags,Backpacks,2017-04-11 12:00:49,2.92
3486,LAF15919575,10294,Switzerland,Praden,,,44.494887,11.3426163,Italy,Bologna,Express,No,9004.10.00,Optical lenses,Sunglasses,Accessories,Sunglasses,2017-12-24 07:55:59,5.33
14898,VTK8817567,9462,Kazakhstan,Astana,51.1666667,71.4333333,52.2296756,21.0122287,Poland,warsaw,Express,No,6206.30.30 ,Clothing & Accessories,Blouses  shirts and shirt-blouses,Clothing,Tops,2017-01-09 12:18:04,10.21
12507,LEC13371523,9089,Germany,München,48.1351253,11.5819806,48.856614,2.3522218999999995,France,Paris,Standard,No,6109.10.00,Clothing & Accessories, T-shirts  singlets and other vests,Clothing,T-Shirts & Vests,2017-09-14 15:40:22,4.88
19511,PRI11600890,9317,Russian Federation,ORENBURG,51.7833333,55.1,37.8516366,15.285312699999999,Italy,Taormina,Express,No,0000.00.00,default value,,Clothing,Shorts,2017-06-13 20:34:46,5.58
13606,DOP15966221,9954,United Kingdom,London,51.508515,-0.1254872,,,Italy,Funo Di Argelato,Standard,No,6203.32.20  ,Clothing & Accessories,Jackets and blazers,Clothing,Jackets,2017-12-26 21:05:45,7.54
19868,VIN4769263,9796,Kazakhstan,Astana,51.1666667,71.4333333,45.611892,8.8531265,Italy,Busto Arsizio,Express,No,6204.59.30  ,Clothing & Accessories,Skirts,Clothing,Skirts,2016-01-21 08:57:41,6.08
12398,ATP13861138,10264,Azerbaijan,Baku,40.4349504,49.8676232,43.1588734,13.7200884,Italy,Fermo,Express,No,6403519000,Kids' Footwear with outer soles of rubber  plastics  leather or composition leather and uppers of leather,Other footwear with outer soles of leather,Girls Shoes,Boots,2017-10-15 12:06:29,3.96
3614,JLF8716984,9306,United States,Palm Beach Gardens,26.8233946,-80.1386547,44.323287,12.291485,Italy,savio,Express,No,6211.11.80 ,Clothing & Accessories,Swimwear,Clothing,Beachwear,2017-01-03 07:13:18,2.21
14441,DPR15113714,9334,United States,New York,40.7056308,-73.9780035,40.4643606,17.2470303,Italy,Taranto,Express,No,6203.42.40  ,Clothing & Accessories,Trousers  overalls  shorts,Clothing,Denim,2017-11-25 00:54:03,5.46
14508,MCS11355604,10185,United States,Miami,25.789097199999997,-80.20404349999998,40.7281575,-74.0776417,United States,Jersey City,Express,No,6204.43.40  ,Clothing & Accessories,Dresses,Clothing,Dresses,2017-06-01 20:53:56,4.58
13099,UGK8157047,10147,Italy,Sant Agata Feltria RN,,,40.9270884,14.528885999999998,Italy,Nola,Standard,No,6104432000,Kids' Clothing & Accessories,Dresses,Girls Clothing,Dresses,2016-11-26 06:33:06,3.38
15661,ERA6416824,9446,United Kingdom,St Andrews,56.339316,-2.7965,45.6890925,12.6390279,Italy,CEGGIA VE,Standard,No,,,,Clothing,Dresses,2016-07-02 13:48:35,6.0
1233,VTK14103895,9462,United States,Atlanta,33.7489954,-84.3879824,52.2296756,21.0122287,Poland,warsaw,Express,No,,,,Clothing,Tops,2017-10-27 17:46:33,4.79
17338,LUI12584111,9541,Germany,Berlin,52.5200066,13.404954,37.983917,23.7293599,Greece,Athens,Express,No,7117.90.90 , Imitation jewellery,Other,Jewellery,Bracelets,2017-07-23 13:59:08,1.92
8131,ELI5611381,9436,Korea  Republic of,SEOUL,37.53189329999999,126.9191163,36.5000347,-4.9716236,Spain,Nueva andalucia,Express,No,4203.30.00,Bags & similar,Belts,Accessories,Belts,2016-04-21 10:37:54,4.12
5836,RTT5894818,9851,United States,Boca Raton,26.3683064,-80.1289321,43.9124756,12.9155494,Italy,pesaro,Express,No,6203.42.40  ,Clothing & Accessories,Trousers  overalls  shorts,Clothing,Denim,2016-05-20 16:56:40,5.83
341,TRF5197817,9068,United States,framingham,42.279286,-71.4161565,34.0522342,-118.2436849,United States,Los Angeles,Express,No,6403.99.60  ,Footwear with outer soles of rubber  plastics  leather or composition leather and uppers of leather,Other footwear,Shoes,Trainers,2016-03-06 05:21:19,3.46
16136,HIR4624569,9640,United States,Jacksonville,30.3321838,-81.655651,40.7978787,-73.6995749,United States,Manhasset,Standard,No,6403.40.30,Footwear with outer soles of rubber  plastics  leather or composition leather and uppers of leather,Footwear with outer soles of leather  and uppers which consist of leather straps across the instep and around the big toe,Shoes,Sandals,2016-01-08 19:49:32,5.67
10858,CMT15802961,10555,Romania,Targu Mures,46.54555560000001,24.5625,43.2984268,13.4534767,Italy,Macerata,Express,No,6404.11.90,Footwear with outer soles of rubber  plastics  leather or composition leather and uppers of textile materials,Footwear with outer soles of rubber or plastics,Shoes,Trainers,2017-12-18 17:37:35,1.79
6711,MAR8314535,9364,Poland,Warsaw,52.2296756,21.0122287,45.1564168,10.7913751,Italy,Mantova,Standard,No,6110.11.00,Clothing & Accessories,Jerseys  pullovers  cardigans  waistcoats and similar articles  knitted or crocheted,Clothing,Sweaters & Knitwear,2016-12-04 08:37:47,5.04
6144,DLT5106239,9044,Korea  Republic of,Seoul,37.53189329999999,126.9191163,43.318809,11.330757400000001,Italy,Siena,Express,No,6203.41.18 ,Clothing & Accessories,Trousers  overalls  shorts,Clothing,Trousers,2016-02-21 06:28:56,3.21
4018,VTK11978762,9462,China,Hangzhou,30.274085,120.15507,52.2296756,21.0122287,Poland,warsaw,Express,No,6109.10.00,Clothing & Accessories, T-shirts  singlets and other vests,Clothing,T-Shirts & Vests,2017-07-03 19:20:12,2.83
1855,DOG17074848,9258,United States,San Marino,34.121397,-118.1064585,38.1156879,13.3612671,Italy,Palermo,Express,No,6110.20.20 ,Clothing & Accessories,Jerseys  pullovers  cardigans  waistcoats and similar articles  knitted or crocheted,Clothing,Sweaters & Knitwear,2018-01-27 07:21:33,5.12
1696,GOR17127964,9514,United States,UNIVERSAL CITY,29.5480071,-98.2911235,38.3459963,-0.49068549999999994,Spain,Alicante,Express,No,6103.42.10 ,Clothing & Accessories,Trousers  overalls  shorts,Clothing,Denim,2018-01-29 23:09:33,2.5
7108,VTK16751028,9462,Australia,Essendon North,-37.7413335,144.9062415,52.2296756,21.0122287,Poland,warsaw,Express,No,6404.11.20,Footwear with outer soles of rubber  plastics  leather or composition leather and uppers of textile materials,Footwear with outer soles of rubber or plastics,Shoes,Hi-Tops,2018-01-13 08:30:05,9.38
12717,MCS14318692,10185,United Kingdom,TheBower,,,40.7281575,-74.0776417,United States,Jersey City,Express,No,6204.43.40  ,Clothing & Accessories,Dresses,Clothing,Dresses,2017-11-08 15:10:38,1.92
17420,VER13057949,9445,Israel,Tel-Aviv,32.0852999,34.7817676,51.2194475,4.4024643,Belgium,antwerp,Express,No,6203.43.20 ,Clothing & Accessories,Trousers  overalls  shorts,Clothing,Trousers,2017-08-24 21:38:33,4.58
3764,CBE5198289,9183,United States,Urbana,40.1105875,-88.2072697,45.764043,4.835659,France,Lyon,Express,No,6110.20.20 ,Clothing & Accessories,Jerseys  pullovers  cardigans  waistcoats and similar articles  knitted or crocheted,Clothing,Sweaters & Knitwear,2016-03-06 07:58:34,3.21
16008,ERA5763597,9446,Oman,Muscat,23.61,58.54,45.6890925,12.6390279,Italy,CEGGIA VE,Express,No,4203.30.00,Bags & similar,Belts,Accessories,Belts,2016-05-10 16:16:16,3.75
19021,WIS9538122,10030,United States,Santa Monica,34.01945429999999,-118.4911912,45.133249,10.0226511,Italy,Cremona,Express,No,6206.30.30 ,Clothing & Accessories,Blouses  shirts and shirt-blouses,Clothing,Tops,2017-02-16 16:40:26,0.79
980,NUG9117456,9681,Germany,Rühen,,,41.2774857,16.4178334,Italy,TRANI,Standard,No,6110.20.20 ,Clothing & Accessories,Jerseys  pullovers  cardigans  waistcoats and similar articles  knitted or crocheted,Clothing,T-Shirts & Vests,2017-01-15 15:38:28,4.0
15880,STF10122181,9336,Kuwait,Kuwait,29.3697222,47.9783333,38.0176177,12.537202,Italy,TRAPANI,Express,No,6109100000,Kids' Clothing & Accessories,T-shirts  singlets and other vests,Boys Clothing,Tops,2017-03-24 20:07:50,7.58
11983,VIS13924400,9874,Russian Federation,Cherkessk,44.2166667,42.05,38.1156879,13.3612671,Italy,Palermo,Express,No,6201.11.00,Clothing & Accessories,Coats: overcoats  raincoat  cape  cloaks and similar articles,Clothing,Coats,2017-10-18 11:02:06,6.21
15601,ILD16588767,10167,Russian Federation,Tyumen,,,45.44693,8.6221612,Italy,Novara,Express,No,4202.21.90  ,Bags & similar,Handbags  whether or not with shoulder strap  including those without handle,Bags,Shoulder Bags,2018-01-11 08:01:41,11.25
16593,ALD12705551,9178,United Kingdom,london,51.508515,-0.1254872,45.4934881,12.2463181,Italy,MESTRE,Standard,No,,,,Shoes,Espadrilles,2017-07-30 16:33:11,4.79
11474,KNW6114189,9101,United States,Philadelphia,39.952335,-75.16378899999998,39.952335,-75.16378899999998,United States,Philadelphia,Standard,No,6203.49.20 ,Clothing & Accessories,Trousers  overalls  shorts,Clothing,Trousers,2016-06-05 17:12:13,1.88
13166,TFL17156209,9788,United States,Irvine,33.6839473,-117.79469420000001,46.0065117,8.9523121,Switzerland,Lugano,Express,No,6403.91.90 ,Footwear with outer soles of rubber  plastics  leather or composition leather and uppers of leather,Other footwear,Shoes,Boots,2018-01-31 07:02:15,5.25
1734,TSS5828974,9053,Macau,Macau,22.1960033,113.5460653,45.8080597,9.0851765,Italy,Como,Express,No,6404.11.90,Footwear with outer soles of rubber  plastics  leather or composition leather and uppers of textile materials,Footwear with outer soles of rubber or plastics,Shoes,Trainers,2016-05-15 11:54:33,5.42
13427,THW11324833,10080,Japan,OSAKA SHI NISHI KU - EDOBORI,,,34.0522342,-118.2436849,United States,Los Angeles,Express,No,6206.10.00,Clothing & Accessories,Blouses  shirts and shirt-blouses,Clothing,Tops,2017-05-31 11:03:17,5.0
5980,ETI13645856,9774,United States,san francisco,37.7749295,-122.4194155,45.1316088,8.450502999999998,Italy,Casale Monferrato,Express,No,4202.31.60  ,Bags & similar,Articles of a kind normally carried in the pocket or in the handbag,Accessories,Wallets & Cardholders,2017-10-02 20:29:43,2.58
4920,YUS6456817,9661,Canada,Vancouver,49.261226,-123.11392679999999,40.4167754,-3.7037902,Spain,Madrid,Express,No,6109.10.00,Clothing & Accessories, T-shirts  singlets and other vests,Clothing,Polo Shirts,2016-07-06 14:46:43,5.83
16637,DLB9824949,9026,Russian Federation,Vladivostok,43.1666667,131.9333333,40.8517746,14.268124400000001,Italy,Naples,Express,No,6404.11.20,Footwear with outer soles of rubber  plastics  leather or composition leather and uppers of textile materials,Footwear with outer soles of rubber or plastics,Shoes,Trainers,2017-03-07 01:42:48,8.5
2658,FIR5782953,9389,Germany,Berlin,52.5200066,13.404954,48.2081743,16.3738189,Austria,Vienna,Express,No,6203.42.40  ,Clothing & Accessories,Trousers  overalls  shorts,Clothing,Denim,2016-05-12 11:26:01,1.04
9789,MJR10780708,10602,United States,Sacramento,38.5815719,-121.4943996,,,Italy,BELLIZZI (SA),Express,No,6109100000,Kids' Clothing & Accessories,T-shirts  singlets and other vests,Boys Clothing,Tops,2017-05-01 09:32:09,3.08
18967,OOO15483208,9475,Germany,Troisdorf,50.8177471,7.1430246,44.801485,10.3279036,Italy,Parma,Standard,No,6110.30.30,Clothing & Accessories,Jerseys  pullovers  cardigans  waistcoats and similar articles  knitted or crocheted,Clothing,Knitwear,2017-12-05 15:24:37,2.96
1915,SPS12298427,9309,China,Shanghai,31.230416,121.473701,43.8159671,7.7760567,Italy,SANREMO,Express,No,4202.21.90  ,Bags & similar,Handbags  whether or not with shoulder strap  including those without handle,Bags,Satchels & Cross Body Bags,2017-07-12 14:16:23,5.96
6186,FIA17822889,9672,Saudi Arabia,Riyadh,24.7116667,46.7241667,43.9579617,10.1672792,Italy,Forte Dei Marmi,Express,No,6403.59.90 ,Footwear with outer soles of rubber  plastics  leather or composition leather and uppers of leather,Other footwear with outer soles of leather,Shoes,Espadrilles,2018-02-27 07:41:28,2.25
9830,MAR6632001,9364,Australia,Randwick,-33.9144373,151.2416416,45.1564168,10.7913751,Italy,Mantova,Express,No,6110.11.00,Clothing & Accessories,Jerseys  pullovers  cardigans  waistcoats and similar articles  knitted or crocheted,Clothing,Sweaters & Knitwear,2016-07-13 13:54:42,47.04
6027,SUG8661543,10050,United Kingdom,Coventry,52.406822,-1.519693,43.4632839,11.8796336,Italy,Arezzo,Standard,No,6203.42.40  ,Clothing & Accessories,Trousers  overalls  shorts,Clothing,Trousers,2016-12-29 03:38:06,5.38
6951,VOG5012755,9689,China,Xi'an,34.341568,108.940175,43.4632839,11.8796336,Italy,Arezzo,Express,No,6109.10.00,Clothing & Accessories, T-shirts  singlets and other vests,Clothing,T-Shirts & Vests,2016-02-10 04:06:15,7.29
17063,STF11573009,9336,Hong Kong,HungHom Kowloon,22.3076299,114.1870366,38.0176177,12.537202,Italy,TRAPANI,Express,No,7117.19.90, Imitation jewellery,Of base metal  whether or not plated with precious metal,Jewellery,Necklaces,2017-06-12 21:36:19,6.5
2544,STF11282219,9336,United States,Manhattan Beach,33.8847361,-118.41090890000001,38.0176177,12.537202,Italy,TRAPANI,Express,No,0000.00.00,default value,,Clothing,Denim,2017-05-29 03:34:27,7.33
16019,CM113567388,10794,Netherlands,Haarlem,52.3873878,4.6462194,48.30694,14.28583,Austria,Linz,Express,No,6204.51.00,Clothing & Accessories,Skirts,Clothing,Skirts,2017-09-27 15:34:35,1.88
11099,ALD15768019,9178,United Kingdom,Greater Manchester,53.4575955,-2.1578377,45.4934881,12.2463181,Italy,MESTRE,Standard,No,6109.10.00,Clothing & Accessories, T-shirts  singlets and other vests,Clothing,Tops,2017-12-17 10:10:29,4.04
18332,VTK16664473,9462,Japan,hachioji,35.6663394,139.31580559999998,52.2296756,21.0122287,Poland,warsaw,Express,No,4202.22.45 ,Bags & similar,Handbags  whether or not with shoulder strap  including those without handle,Bags,Tote Bags,2018-01-12 06:56:22,3.17
15862,VTK10461718,9462,Romania,Cluj-Napoca,46.7666667,23.5833333,52.2296756,21.0122287,Poland,warsaw,Standard,No,6109.10.00,Clothing & Accessories, T-shirts  singlets and other vests,Clothing,Tops,2017-04-13 17:38:00,10.92
11945,NOK17334486,10433,Korea  Republic of,seoul,37.53189329999999,126.9191163,,,Italy,FUNO DI ARGELATO (BO),Express,No,6103.43.15 ,Clothing & Accessories,Trousers  overalls  shorts,Activewear,Sport Trousers,2018-02-08 03:21:06,4.29
6964,TAS10687844,9269,United States,oakland,37.8043637,-122.27111370000002,44.494887,11.3426163,Italy,Bologna,Express,No,6403.51.90,Footwear with outer soles of rubber  plastics  leather or composition leather and uppers of leather,Other footwear with outer soles of leather,Shoes,Boots,2017-04-25 20:30:06,5.96
1073,PDT7440067,9229,Japan,OSAKASAYAMA-CITY,34.5037954,135.5556927,54.597285,-5.93012,United Kingdom,Belfast,Express,No,6403.59.90 ,Footwear with outer soles of rubber  plastics  leather or composition leather and uppers of leather,Other footwear with outer soles of leather,Shoes,Pumps,2016-10-06 07:37:35,5.5
1772,JOF7760340,9300,United Kingdom,Nr royston,,,41.1498259,1.1055321000000002,Spain,Reus,Express,No,6203.31.90 ,Clothing & Accessories,Jackets and blazers,Clothing,Jackets,2016-11-07 18:32:51,2.75
1717,JLF15667745,9306,China,Beijing,39.90403,116.407526,44.323287,12.291485,Italy,savio,Express,No,6205.20.20  ,Clothing & Accessories,Shirts,Clothing,Shirts,2017-12-13 08:41:10,12.29
8845,OOO18135411,9475,Russian Federation,Peterburi,,,44.801485,10.3279036,Italy,Parma,Express,No,6404.11.20,Footwear with outer soles of rubber  plastics  leather or composition leather and uppers of textile materials,Footwear with outer soles of rubber or plastics,Shoes,Low-Tops,2018-03-09 14:06:25,6.21
15790,CHO16045665,10383,Saudi Arabia,Riyadh,24.7116667,46.7241667,52.4750743,-1.8298330000000003,United Kingdom,west midlands,Express,No,6110202000,Kids' Clothing & Accessories,Jerseys  pullovers  cardigans  waistcoats and similar articles  knitted or crocheted,Girls Clothing,Dresses,2017-12-30 19:33:09,7.83
7647,VIN15286289,9796,United Kingdom,Bristol,51.454513,-2.58791,45.611892,8.8531265,Italy,Busto Arsizio,Standard,No,6109.10.00,Clothing & Accessories, T-shirts  singlets and other vests,Clothing,Tops,2017-11-28 01:06:12,3.54
7590,ERA15709880,9446,Canada,Pickering,43.8384117,-79.08675789999998,45.6890925,12.6390279,Italy,CEGGIA VE,Express,No,6404.11.20,Footwear with outer soles of rubber  plastics  leather or composition leather and uppers of textile materials,Footwear with outer soles of rubber or plastics,Shoes,Trainers,2017-12-14 21:37:18,5.71
13191,DQH8500948,10415,France,talence,44.802614,-0.588054,48.856614,2.3522218999999995,France,Paris,Standard,No,6505.90.25 ,Hats and Headwear,Hats and other headgear  knitted or crocheted  or made-up from lace  felt or other textile fabric  in the piece (but not in strips)  whether or not lined or trimmed,Accessories,Hats,2016-12-16 10:38:40,4.08
17651,BRH10579134,10361,United Kingdom,London,51.508515,-0.1254872,51.652766,-0.028045,United Kingdom,Brimsdown,Express,No,6109.10.00,Clothing & Accessories, T-shirts  singlets and other vests,Clothing,T-Shirts & Vests,2017-04-19 22:51:41,25.67
7466,BRO10113530,9359,Germany,Berlin,52.5200066,13.404954,51.508515,-0.1254872,United Kingdom,London,Standard,No,0000.00.00,default value,,Clothing,Tops,2017-03-24 10:12:40,4.12
2272,ICO14256670,10668,Canada,Vancouver,49.261226,-123.11392679999999,47.80949,13.05501,Austria,Salzburg,Express,No,6205.20.20  ,Clothing & Accessories,Shirts,Clothing,Shirts,2017-11-04 20:32:30,3.58
5017,DOG9984881,9258,Hong Kong,Hong Kong,22.396428,114.10949699999999,38.1156879,13.3612671,Italy,Palermo,Express,No,6203.42.40  ,Clothing & Accessories,Trousers  overalls  shorts,Clothing,Trousers,2017-03-16 10:24:20,4.17
5199,VTK12459479,9462,United States,New York,40.7056308,-73.9780035,52.2296756,21.0122287,Poland,warsaw,Express,No,6109100000,Kids' Clothing & Accessories,T-shirts  singlets and other vests,Boys Clothing,Tops,2017-07-15 13:23:43,3.17
13066,VTW16651917,10614,United Kingdom,Taunton,51.015344,-3.106849,52.2296756,21.0122287,Poland,warsaw,Standard,No,6103.42.10 ,Clothing & Accessories,Trousers  overalls  shorts,Clothing,Denim,2018-01-12 01:20:28,6.5
9812,RTT15413362,9851,United States,Toluca Lake,34.1501794,-118.3549609,43.9124756,12.9155494,Italy,pesaro,Express,No,6110.11.00,Clothing & Accessories,Jerseys  pullovers  cardigans  waistcoats and similar articles  knitted or crocheted,Clothing,Sweaters & Knitwear,2017-12-02 20:17:24,5.83
969,GRM5945144,9383,Hong Kong,Hong Kong,22.396428,114.10949699999999,41.8723889,12.4801802,Italy,Rome,Express,No,,,,Shoes,Trainers,2016-05-24 15:10:40,3.88
13576,DLB15805083,9026,Germany,Ammerland,,,40.8517746,14.268124400000001,Italy,Naples,Standard,No,6403.91.60 ,Footwear with outer soles of rubber  plastics  leather or composition leather and uppers of leather,Other footwear,Shoes,Boots,2017-12-18 19:22:39,3.62
7480,WIS11348102,10030,Russian Federation,Ekaterinburg,56.8333333,60.6,45.133249,10.0226511,Italy,Cremona,Express,No,6203.33.20,Clothing & Accessories,Jackets and blazers,Clothing,Jackets,2017-06-01 13:05:02,3.88
8572,STF6986816,9336,United States,Champaign,40.1164204,-88.2433829,38.0176177,12.537202,Italy,TRAPANI,Express,No,0000.00.00,default value,,Shoes,Espadrilles,2016-08-17 16:52:58,5.92
7442,AEK12266204,10553,United Kingdom,london,51.508515,-0.1254872,55.3632242,10.4896986,Denmark,Odense SO,Express,No,4202.21.90  ,Bags & similar,Handbags  whether or not with shoulder strap  including those without handle,Bags,Tote Bags,2017-07-12 02:49:09,7.33
8888,SGW14630768,9635,Japan,Minato-ku,35.6580681,139.7515992,48.7754181,9.1817588,Germany,Stuttgart,Express,No,6403.59.90 ,Footwear with outer soles of rubber  plastics  leather or composition leather and uppers of leather,Other footwear with outer soles of leather,Shoes,Ballerina Shoes,2017-11-18 03:07:14,4.42
492,STF8162794,9336,Australia,Melbourne,-37.814107,144.96328,38.0176177,12.537202,Italy,TRAPANI,Express,No,6403.99.90 ,Footwear with outer soles of rubber  plastics  leather or composition leather and uppers of leather,Other footwear,Shoes,Ballerina Shoes,2016-11-26 10:05:13,6.21
13959,TFL16232891,9788,China,Hefei,31.820587,117.22723899999998,46.0065117,8.9523121,Switzerland,Lugano,Express,No,0000.00.00,default value,,Accessories,Keyrings & Chains,2018-01-08 07:21:41,22.46
250,TZF11563793,9728,Mexico,MEXICO,19.4326077,-99.133208,,,Italy,ALBANO SANT ALESSANDRO,Express,No,6110.20.20 ,Clothing & Accessories,Jerseys  pullovers  cardigans  waistcoats and similar articles  knitted or crocheted,Clothing,Knitwear,2017-06-12 14:31:09,6.79
1304,OOO6312876,9475,Russian Federation,Moscow,55.755826,37.6173,44.801485,10.3279036,Italy,Parma,Express,No,6204.49.10 ,Clothing & Accessories,Dresses,Clothing,Dresses,2016-06-23 10:00:34,1.21
337,ATO5506234,9843,Australia,Melbourne,-37.814107,144.96328,45.4654219,9.185924300000002,Italy,Milano,Express,No,0000.00.00,default value,,Shoes,Trainers,2016-04-10 06:40:14,4.17
12493,NUG6624305,9681,Hong Kong,Sai kung,22.4075171,114.3222577,41.2774857,16.4178334,Italy,TRANI,Express,No,6404.19.15 ,Footwear with outer soles of rubber  plastics  leather or composition leather and uppers of textile materials,Footwear with outer soles of rubber or plastics,Shoes,Trainers,2016-07-13 07:57:07,6.08
16400,ELI7556602,9436,Russian Federation,Saint-Peterburg,60.07623829999999,30.121382899999997,36.5000347,-4.9716236,Spain,Nueva andalucia,Express,No,6404.11.90,Footwear with outer soles of rubber  plastics  leather or composition leather and uppers of textile materials,Footwear with outer soles of rubber or plastics,Shoes,Trainers,2016-10-18 02:44:31,9.42
17002,GRM6194705,9383,United States,New York,40.7056308,-73.9780035,41.8723889,12.4801802,Italy,Rome,Express,No,4202.32.10 ,Bags & similar,Articles of a kind normally carried in the pocket or in the handbag,Lifestyle,Phone  Computer & Gadgets,2016-06-13 05:20:04,2.42
2935,AFF15690708,10764,Australia,MELBOURNE,-37.814107,144.96328,41.7188539,13.613049100000001,Italy,Sora,Express,No,6111901900,Babies' garments and clothing accessories,Babies' Sweaters  pullovers  sweatshirts  waistcoats (vests) and similar articles  except those imported as parts of sets,Baby Girl Clothing,Tops,2017-12-14 06:00:50,4.25
6526,POZ4632622,9516,Taiwan,Taipei,25.091075,121.5598345,45.4951221,9.5680452,Italy,CASIRATE D ADDA,Express,No,6404.19.90  ,Footwear with outer soles of rubber  plastics  leather or composition leather and uppers of textile materials,Footwear with outer soles of rubber or plastics,Shoes,Trainers,2016-01-10 02:56:16,3.29
15136,PRI11554460,9317,U.A.E.,Dubai,25.0476643,55.1817407,37.8516366,15.285312699999999,Italy,Taormina,Express,No,,,,Girls Clothing,Tops,2017-06-12 05:08:32,6.25
7100,MNT5173164,9453,Hong Kong,Tsing Yi,22.358487,114.107261,43.57248679999999,11.5230045,Italy,San Giovanni Valdarno,Express,No,4202.39.90 ,Bags & similar,Articles of a kind normally carried in the pocket or in the handbag,Lifestyle,Phone  Computer & Gadgets,2016-03-02 16:06:28,2.75
8899,ALD15083558,9178,United States,Scottsdale,33.4941704,-111.9260519,45.4934881,12.2463181,Italy,MESTRE,Express,No,6203.32.20  ,Clothing & Accessories,Jackets and blazers,Clothing,Jackets,2017-11-24 19:33:42,4.71
15428,CIS6199827,9968,Russian Federation,Moscow,55.755826,37.6173,52.091874,5.0966227,Netherlands,Utrecht,Express,No,6203.42.40  ,Clothing & Accessories,Trousers  overalls  shorts,Clothing,Trousers,2016-06-13 16:49:52,2.96
19043,NIK13091857,9997,United States,Brooklyn,40.6927778,-73.9902778,51.508515,-0.1254872,United Kingdom,London,Express,No,6403.59.90 ,Footwear with outer soles of rubber  plastics  leather or composition leather and uppers of leather,Other footwear with outer soles of leather,Shoes,Loafers,2017-08-27 06:38:42,4.38
2596,DOG4645772,9258,United States,morganville,40.3359924,-74.29111539999998,38.1156879,13.3612671,Italy,Palermo,Express,No,6106.90.30  ,Clothing & Accessories,Blouses  shirts and shirt-blouses,Clothing,Tops,2016-01-12 04:55:42,2.38
12764,BRH15086866,10361,Russian Federation,Moscow,55.755826,37.6173,51.652766,-0.028045,United Kingdom,Brimsdown,Express,No,6204.41.20 ,Clothing & Accessories,Dresses,Clothing,Dresses,2017-11-24 20:04:57,5.58
4558,B088038801,10352,United Kingdom,Reading,51.4542645,-0.9781303,48.856614,2.3522218999999995,France,Paris,Standard,No,6404.11.20,Footwear with outer soles of rubber  plastics  leather or composition leather and uppers of textile materials,Footwear with outer soles of rubber or plastics,Shoes,Trainers,2016-11-23 19:38:19,4.67
537,TSS5157276,9053,Russian Federation,Istrinsky r-n Der.Borzyie,,,45.8080597,9.0851765,Italy,Como,Express,No,6211.11.10  ,Clothing & Accessories,Swimwear,Clothing,Beachwear,2016-02-29 20:45:33,2.58
2176,AMM7874239,9684,United Kingdom,Birmingham,52.486243,-1.8904009999999998,44.3168416,9.3199822,Italy,Chiavari,Standard,No,6215.10.00,Clothing & Accessories,Ties  bow ties and cravats,Accessories,Ties & Bow Ties,2016-11-12 15:41:16,4.88
3702,GNB7718994,9838,Germany,Bochum,51.4818445,7.2162363,45.4827412,10.1789011,Italy,FLERO,Express,No,6203.42.40  ,Clothing & Accessories,Trousers  overalls  shorts,Clothing,Trousers,2016-11-03 09:58:58,5.12
14415,WEB5287574,9352,United States,San Diego,32.715738,-117.1610838,25.790654,-80.13004549999998,United States,Miami Beach,Standard,No,6203.42.40  ,Clothing & Accessories,Trousers  overalls  shorts,Clothing,Denim,2016-03-18 03:34:20,10.38
7420,KTZ8266408,10219,United States,New Orleans,29.9510658,-90.0715323,51.508515,-0.1254872,United Kingdom,London,Express,No,6110.20.20 ,Clothing & Accessories,Jerseys  pullovers  cardigans  waistcoats and similar articles  knitted or crocheted,Clothing,Sweaters & Knitwear,2016-12-01 10:32:45,3.92
17497,DVC15812598,9921,Australia,South Morang,-37.6513392,145.0891037,,,Italy,SANT ANASTASIA,Express,No,6403.99.60  ,Footwear with outer soles of rubber  plastics  leather or composition leather and uppers of leather,Other footwear,Shoes,Low-Tops,2017-12-19 02:10:06,5.38
4518,COS18079955,9952,South Africa,jojannesburg,,,41.2371851,1.805886,Spain,Sitges,Express,No,0000.00.00,default value,,Clothing,Beachwear,2018-03-07 16:23:39,12.67
8017,VTK15341954,9462,United States,Venice,27.0997775,-82.4542632,52.2296756,21.0122287,Poland,warsaw,Express,No,6404.11.90,Footwear with outer soles of rubber  plastics  leather or composition leather and uppers of textile materials,Footwear with outer soles of rubber or plastics,Shoes,Trainers,2017-11-29 23:34:50,5.54
2259,STF14173600,9336,United States,Brighton,39.9852617,-104.8205283,38.0176177,12.537202,Italy,TRAPANI,Express,No,0000.00.00,default value,,Shoes,Low-Tops,2017-10-31 03:53:10,6.25
7733,DAN12044360,9597,United States,Providence,41.8239891,-71.4128343,40.9844523,14.218948,Italy,Carinaro,Express,No,6109.10.00,Clothing & Accessories, T-shirts  singlets and other vests,Clothing,T-Shirts & Vests,2017-07-07 09:29:21,3.12
11216,PRT8622628,9671,Australia,Griffith,-34.2872974,146.0458369,44.0570817,12.5646003,Italy,Rimini,Express,No,6403.51.30 ,Footwear with outer soles of rubber  plastics  leather or composition leather and uppers of leather,Other footwear with outer soles of leather,Shoes,Sandals,2016-12-26 08:20:21,9.96
16802,PAP9355736,9544,United States,Beverly Hills,34.0736204,-118.40035630000001,37.5078772,15.0830304,Italy,Catania,Express,No,0000.00.00,default value,,Shoes,Trainers,2017-02-03 07:23:44,10.54
13392,GOR7177012,9514,Netherlands,Haarlem,52.3873878,4.6462194,38.3459963,-0.49068549999999994,Spain,Alicante,Express,No,6204.44.40  ,Clothing & Accessories,Dresses,Clothing,Dresses,2016-09-08 06:49:32,7.5
16461,B029522451,9055,United States,MIAMI,25.789097199999997,-80.20404349999998,48.856614,2.3522218999999995,France,Paris,Express,No,6404.20.60,Footwear with outer soles of rubber  plastics  leather or composition leather and uppers of textile materials,Footwear with outer soles of leather or composition leather,Shoes,Sandals,2017-02-15 17:36:58,4.62
13474,NPL8396046,9969,Ireland,Dublin,53.34980529999999,-6.2603097,51.508515,-0.1254872,United Kingdom,London,Standard,No,4202.39.90 ,Bags & similar,Articles of a kind normally carried in the pocket or in the handbag,Accessories,Keyrings & Chains,2016-12-09 14:42:01,5.08
19184,BRH17348637,10361,United States,San Francisco,37.7749295,-122.4194155,51.652766,-0.028045,United Kingdom,Brimsdown,Express,No,6204.53.30 ,Clothing & Accessories,Skirts,Clothing,Skirts,2018-02-08 15:56:10,3.79
13835,MNT13322266,9453,Sweden,Stockholm,59.3293235,18.0685808,43.57248679999999,11.5230045,Italy,San Giovanni Valdarno,Express,No,6404.20.60,Footwear with outer soles of rubber  plastics  leather or composition leather and uppers of textile materials,Footwear with outer soles of leather or composition leather,Shoes,Boots,2017-09-11 16:33:27,1.79
